$GPGGA,120000,4518.8701,N,07550.2500,W,1,12,0.92,1000.0,M,-34.3,M,,*75
$GPRMC,120000,A,4518.8701,N,07550.2500,W,0.0,0.0,100223,,,A*65
$PFLAU,1,1,2,1,0,333,0,-50,2236,C043EC*21
$PFLAA,0,2000,-1000,-50,1,C043EC,0.00,0.00,0.00,0.00,1*32
$GPGGA,120001,4518.8779,N,07550.2363,W,1,12,0.92,1001.0,M,-34.3,M,,*79
$GPRMC,120001,A,4518.8779,N,07550.2363,W,23.1,51.0,100223,,,A*6C
$PFLAU,1,1,2,1,0,282,0,-51,2251,C043EC*2A
$PFLAA,0,2010,-1011,-51,1,C043EC,334.00,-26.00,2256.00,0.50,1*19
$GPGGA,120002,4518.8833,N,07550.2202,W,1,12,0.92,1002.0,M,-34.3,M,,*7E
$GPRMC,120002,A,4518.8833,N,07550.2202,W,23.1,63.0,100223,,,A*69
$PFLAU,1,1,2,1,0,270,0,-52,2265,C043EC*23
$PFLAA,0,2022,-1020,-52,1,C043EC,28.00,54.00,26.00,0.50,1*08
$GPGGA,120003,4518.8867,N,07550.2031,W,1,12,0.92,1003.0,M,-34.3,M,,*7D
$GPRMC,120003,A,4518.8867,N,07550.2031,W,23.1,75.0,100223,,,A*6C
$PFLAU,1,1,2,1,0,258,0,-53,2279,C043EC*25
$PFLAA,0,2035,-1025,-53,1,C043EC,42.00,14.00,26.00,0.50,1*02
$GPGGA,120004,4518.8872,N,07550.1855,W,1,12,0.92,1004.0,M,-34.3,M,,*70
$GPRMC,120004,A,4518.8872,N,07550.1855,W,23.1,87.0,100223,,,A*6B
$PFLAU,1,1,2,1,0,246,0,-54,2292,C043EC*28
$PFLAA,0,2048,-1027,-54,1,C043EC,56.00,14.00,26.00,0.50,1*08
$GPGGA,120005,4518.8853,N,07550.1680,W,1,12,0.92,1005.0,M,-34.3,M,,*75
$GPRMC,120005,A,4518.8853,N,07550.1680,W,23.1,99.0,100223,,,A*60
$PFLAU,1,1,2,1,0,235,0,-55,2303,C043EC*24
$PFLAA,0,2061,-1025,-55,1,C043EC,70.00,14.00,26.00,0.50,1*04
$GPGGA,120006,4518.8809,N,07550.1514,W,1,12,0.92,1006.0,M,-34.3,M,,*74
$GPRMC,120006,A,4518.8809,N,07550.1514,W,23.1,111.0,100223,,,A*53
$PFLAU,1,1,2,1,0,223,0,-56,2311,C043EC*23
$PFLAA,0,2072,-1021,-56,1,C043EC,84.00,14.00,26.00,0.50,1*0A
$GPGGA,120007,4518.8740,N,07550.1367,W,1,12,0.92,1007.0,M,-34.3,M,,*74
$GPRMC,120007,A,4518.8740,N,07550.1367,W,23.1,123.0,100223,,,A*53
$PFLAU,1,1,2,1,0,211,0,-57,2316,C043EC*24
$PFLAA,0,2081,-1015,-57,1,C043EC,98.00,14.00,26.00,0.50,1*0D
$GPGGA,120008,4518.8652,N,07550.1240,W,1,12,0.92,1008.0,M,-34.3,M,,*72
$GPRMC,120008,A,4518.8652,N,07550.1240,W,23.1,135.0,100223,,,A*5D
$PFLAU,1,1,2,1,0,199,0,-58,2319,C043EC*27
$PFLAA,0,2088,-1008,-58,1,C043EC,112.00,14.00,26.00,0.50,1*34
$GPGGA,120009,4518.8550,N,07550.1143,W,1,12,0.92,1009.0,M,-34.3,M,,*73
$GPRMC,120009,A,4518.8550,N,07550.1143,W,23.1,147.0,100223,,,A*58
$PFLAU,1,1,2,1,0,187,0,-59,2319,C043EC*29
$PFLAA,0,2092,-1000,-59,1,C043EC,126.00,14.00,26.00,0.50,1*31
$GPGGA,120010,4518.8433,N,07550.1079,W,1,12,0.92,1010.0,M,-34.3,M,,*7F
$GPRMC,120010,A,4518.8433,N,07550.1079,W,23.1,159.0,100223,,,A*53
$PFLAU,1,1,2,1,0,176,0,-60,2317,C043EC*23
$PFLAA,0,2094,-992,-60,1,C043EC,140.00,14.00,26.00,0.50,1*0E
$GPGGA,120011,4518.8306,N,07550.1055,W,1,12,0.92,1011.0,M,-34.3,M,,*70
$GPRMC,120011,A,4518.8306,N,07550.1055,W,23.1,171.0,100223,,,A*57
$PFLAU,1,1,2,1,0,164,0,-61,2314,C043EC*22
$PFLAA,0,2094,-984,-61,1,C043EC,154.00,14.00,26.00,0.50,1*0D
$GPGGA,120012,4518.8184,N,07550.1064,W,1,12,0.92,1012.0,M,-34.3,M,,*7A
$GPRMC,120012,A,4518.8184,N,07550.1064,W,23.1,183.0,100223,,,A*53
$PFLAU,1,1,2,1,0,152,0,-62,2309,C043EC*28
$PFLAA,0,2091,-977,-62,1,C043EC,168.00,14.00,26.00,0.50,1*08
$GPGGA,120013,4518.8062,N,07550.1108,W,1,12,0.92,1013.0,M,-34.3,M,,*78
$GPRMC,120013,A,4518.8062,N,07550.1108,W,23.1,195.0,100223,,,A*57
$PFLAU,1,1,2,1,0,140,0,-63,2304,C043EC*27
$PFLAA,0,2088,-972,-63,1,C043EC,182.00,14.00,26.00,0.50,1*00
$GPGGA,120014,4518.7954,N,07550.1187,W,1,12,0.92,1014.0,M,-34.3,M,,*7C
$GPRMC,120014,A,4518.7954,N,07550.1187,W,23.1,207.0,100223,,,A*5C
$PFLAU,1,1,2,1,0,128,0,-64,2299,C043EC*2B
$PFLAA,0,2084,-969,-64,1,C043EC,196.00,14.00,26.00,0.50,1*04
$GPGGA,120015,4518.7852,N,07550.1299,W,1,12,0.92,1015.0,M,-34.3,M,,*77
$GPRMC,120015,A,4518.7852,N,07550.1299,W,23.1,219.0,100223,,,A*59
$PFLAU,1,1,2,1,0,116,0,-65,2294,C043EC*2A
$PFLAA,0,2080,-967,-65,1,C043EC,210.00,14.00,26.00,0.50,1*02
$GPGGA,120016,4518.7778,N,07550.1440,W,1,12,0.92,1016.0,M,-34.3,M,,*72
$GPRMC,120016,A,4518.7778,N,07550.1440,W,23.1,231.0,100223,,,A*55
$PFLAU,1,1,2,1,0,104,0,-66,2291,C043EC*2F
$PFLAA,0,2076,-967,-66,1,C043EC,224.00,14.00,26.00,0.50,1*0F
$GPGGA,120017,4518.7720,N,07550.1592,W,1,12,0.92,1017.0,M,-34.3,M,,*71
$GPRMC,120017,A,4518.7720,N,07550.1592,W,23.1,243.0,100223,,,A*52
$PFLAU,1,1,2,1,0,92,0,-67,2288,C043EC*18
$PFLAA,0,2073,-968,-67,1,C043EC,238.00,14.00,26.00,0.50,1*09
$GPGGA,120018,4518.7686,N,07550.1768,W,1,12,0.92,1018.0,M,-34.3,M,,*7B
$GPRMC,120018,A,4518.7686,N,07550.1768,W,23.1,255.0,100223,,,A*50
$PFLAU,1,1,2,1,0,80,0,-68,2287,C043EC*1B
$PFLAA,0,2071,-970,-68,1,C043EC,252.00,14.00,26.00,0.50,1*01
$GPGGA,120019,4518.7681,N,07550.1948,W,1,12,0.92,1019.0,M,-34.3,M,,*70
$GPRMC,120019,A,4518.7681,N,07550.1948,W,23.1,267.0,100223,,,A*5B
$PFLAU,1,1,2,1,0,68,0,-69,2288,C043EC*13
$PFLAA,0,2070,-973,-69,1,C043EC,266.00,14.00,26.00,0.50,1*05
$GPGGA,120020,4518.7700,N,07550.2119,W,1,12,0.92,1020.0,M,-34.3,M,,*77
$GPRMC,120020,A,4518.7700,N,07550.2119,W,23.1,279.0,100223,,,A*59
$PFLAU,1,1,2,1,0,56,0,-70,2290,C043EC*1F
$PFLAA,0,2071,-975,-70,1,C043EC,280.00,14.00,26.00,0.50,1*02
$GPGGA,120021,4518.7744,N,07550.2285,W,1,12,0.92,1021.0,M,-34.3,M,,*71
$GPRMC,120021,A,4518.7744,N,07550.2285,W,23.1,291.0,100223,,,A*58
$PFLAU,1,1,2,1,0,44,0,-71,2293,C043EC*1E
$PFLAA,0,2073,-977,-71,1,C043EC,294.00,14.00,26.00,0.50,1*06
$GPGGA,120022,4518.7813,N,07550.2437,W,1,12,0.92,1022.0,M,-34.3,M,,*73
$GPRMC,120022,A,4518.7813,N,07550.2437,W,23.1,303.0,100223,,,A*53
$PFLAU,1,1,2,1,0,32,0,-72,2296,C043EC*19
$PFLAA,0,2076,-978,-72,1,C043EC,308.00,14.00,26.00,0.50,1*0B
$GPGGA,120023,4518.7900,N,07550.2559,W,1,12,0.92,1023.0,M,-34.3,M,,*79
$GPRMC,120023,A,4518.7900,N,07550.2559,W,23.1,315.0,100223,,,A*5F
$PFLAU,1,1,2,1,0,20,0,-73,2299,C043EC*14
$PFLAA,0,2080,-977,-73,1,C043EC,322.00,14.00,26.00,0.50,1*04
$GPGGA,120024,4518.8003,N,07550.2656,W,1,12,0.92,1024.0,M,-34.3,M,,*70
$GPRMC,120024,A,4518.8003,N,07550.2656,W,23.1,327.0,100223,,,A*50
$PFLAU,1,1,2,1,0,8,0,-74,2302,C043EC*2A
$PFLAA,0,2084,-975,-74,1,C043EC,336.00,14.00,26.00,0.50,1*00
$GPGGA,120025,4518.8120,N,07550.2720,W,1,12,0.92,1025.0,M,-34.3,M,,*70
$GPRMC,120025,A,4518.8120,N,07550.2720,W,23.1,339.0,100223,,,A*5E
$PFLAU,1,1,2,1,0,356,0,-75,2304,C043EC*25
$PFLAA,0,2088,-971,-75,1,C043EC,350.00,14.00,26.00,0.50,1*09
$GPGGA,120026,4518.8247,N,07550.2749,W,1,12,0.92,1026.0,M,-34.3,M,,*7D
$GPRMC,120026,A,4518.8247,N,07550.2749,W,23.1,351.0,100223,,,A*5E
$PFLAU,1,1,2,1,0,344,0,-76,2304,C043EC*25
$PFLAA,0,2091,-966,-76,1,C043EC,4.00,14.00,26.00,0.50,1*06
$GPGGA,120027,4518.8369,N,07550.2739,W,1,12,0.92,1027.0,M,-34.3,M,,*77
$GPRMC,120027,A,4518.8369,N,07550.2739,W,23.1,3.0,100223,,,A*51
$PFLAU,1,1,2,1,0,332,0,-77,2302,C043EC*23
$PFLAA,0,2092,-959,-77,1,C043EC,18.00,14.00,26.00,0.50,1*35
$GPGGA,120028,4518.8491,N,07550.2695,W,1,12,0.92,1028.0,M,-34.3,M,,*70
$GPRMC,120028,A,4518.8491,N,07550.2695,W,23.1,15.0,100223,,,A*6E
$PFLAU,1,1,2,1,0,321,0,-78,2299,C043EC*2D
$PFLAA,0,2092,-952,-78,1,C043EC,32.00,14.00,26.00,0.50,1*39
$GPGGA,120029,4518.8604,N,07550.2612,W,1,12,0.92,1029.0,M,-34.3,M,,*71
$GPRMC,120029,A,4518.8604,N,07550.2612,W,23.1,27.0,100223,,,A*6F
$PFLAU,1,1,2,1,0,309,0,-79,2293,C043EC*2C
$PFLAA,0,2089,-944,-79,1,C043EC,46.00,14.00,26.00,0.50,1*36
$GPGGA,120030,4518.8701,N,07550.2500,W,1,12,0.92,1030.0,M,-34.3,M,,*75
$GPRMC,120030,A,4518.8701,N,07550.2500,W,23.1,39.0,100223,,,A*6C
$PFLAU,1,1,2,1,0,297,0,-80,2285,C043EC*2B
$PFLAA,0,2084,-936,-80,1,C043EC,60.00,14.00,26.00,0.50,1*3C
$GPGGA,120031,4518.8779,N,07550.2363,W,1,12,0.92,1031.0,M,-34.3,M,,*79
$GPRMC,120031,A,4518.8779,N,07550.2363,W,23.1,51.0,100223,,,A*6F
$PFLAU,1,1,2,1,0,285,0,-81,2275,C043EC*26
$PFLAA,0,2076,-929,-81,1,C043EC,74.00,14.00,26.00,0.50,1*3B
$GPGGA,120032,4518.8833,N,07550.2202,W,1,12,0.92,1032.0,M,-34.3,M,,*7E
$GPRMC,120032,A,4518.8833,N,07550.2202,W,23.1,63.0,100223,,,A*6A
$PFLAU,1,1,2,1,0,273,0,-82,2265,C043EC*2D
$PFLAA,0,2067,-924,-82,1,C043EC,88.00,14.00,26.00,0.50,1*36
$GPGGA,120033,4518.8867,N,07550.2031,W,1,12,0.92,1033.0,M,-34.3,M,,*7D
$GPRMC,120033,A,4518.8867,N,07550.2031,W,23.1,75.0,100223,,,A*6F
$PFLAU,1,1,2,1,0,261,0,-83,2253,C043EC*2A
$PFLAA,0,2055,-921,-83,1,C043EC,102.00,14.00,26.00,0.50,1*00
$GPGGA,120034,4518.8872,N,07550.1855,W,1,12,0.92,1034.0,M,-34.3,M,,*70
$GPRMC,120034,A,4518.8872,N,07550.1855,W,23.1,87.0,100223,,,A*68
$PFLAU,1,1,2,1,0,249,0,-84,2242,C043EC*27
$PFLAA,0,2043,-921,-84,1,C043EC,116.00,14.00,26.00,0.50,1*05
$GPGGA,120035,4518.8853,N,07550.1680,W,1,12,0.92,1035.0,M,-34.3,M,,*75
$GPRMC,120035,A,4518.8853,N,07550.1680,W,23.1,99.0,100223,,,A*63
$PFLAU,1,1,2,1,0,237,0,-85,2231,C043EC*2B
$PFLAA,0,2030,-925,-85,1,C043EC,130.00,14.00,26.00,0.50,1*00
$GPGGA,120036,4518.8809,N,07550.1514,W,1,12,0.92,1036.0,M,-34.3,M,,*74
$GPRMC,120036,A,4518.8809,N,07550.1514,W,23.1,111.0,100223,,,A*50
$PFLAU,1,1,2,1,0,224,0,-86,2223,C043EC*29
$PFLAA,0,2017,-931,-86,1,C043EC,144.00,14.00,26.00,0.50,1*00
$GPGGA,120037,4518.8740,N,07550.1367,W,1,12,0.92,1037.0,M,-34.3,M,,*74
$GPRMC,120037,A,4518.8740,N,07550.1367,W,23.1,123.0,100223,,,A*50
$PFLAU,1,1,2,1,0,212,0,-87,2217,C043EC*2A
$PFLAA,0,2006,-941,-87,1,C043EC,158.00,14.00,26.00,0.50,1*0B
$GPGGA,120038,4518.8652,N,07550.1240,W,1,12,0.92,1038.0,M,-34.3,M,,*72
$GPRMC,120038,A,4518.8652,N,07550.1240,W,23.1,135.0,100223,,,A*5E
$PFLAU,1,1,2,1,0,199,0,-88,2214,C043EC*26
$PFLAA,0,1997,-954,-88,1,C043EC,172.00,14.00,26.00,0.50,1*0A
$GPGGA,120039,4518.8550,N,07550.1143,W,1,12,0.92,1039.0,M,-34.3,M,,*73
$GPRMC,120039,A,4518.8550,N,07550.1143,W,23.1,147.0,100223,,,A*5B
$PFLAU,1,1,2,1,0,187,0,-89,2215,C043EC*29
$PFLAA,0,1991,-969,-89,1,C043EC,186.00,14.00,26.00,0.50,1*08
$GPGGA,120040,4518.8433,N,07550.1079,W,1,12,0.92,1040.0,M,-34.3,M,,*7F
$GPRMC,120040,A,4518.8433,N,07550.1079,W,23.1,159.0,100223,,,A*56
$PFLAU,1,1,2,1,0,175,0,-90,2220,C043EC*2A
$PFLAA,0,1988,-986,-90,1,C043EC,200.00,14.00,26.00,0.50,1*04
$GPGGA,120041,4518.8306,N,07550.1055,W,1,12,0.92,1041.0,M,-34.3,M,,*70
$GPRMC,120041,A,4518.8306,N,07550.1055,W,23.1,171.0,100223,,,A*52
$PFLAU,1,1,2,1,0,162,0,-91,2230,C043EC*2C
$PFLAA,0,1990,-1004,-91,1,C043EC,214.00,14.00,26.00,0.50,1*3B
$GPGGA,120042,4518.8184,N,07550.1064,W,1,12,0.92,1042.0,M,-34.3,M,,*7A
$GPRMC,120042,A,4518.8184,N,07550.1064,W,23.1,183.0,100223,,,A*56
$PFLAU,1,1,2,1,0,150,0,-92,2243,C043EC*2A
$PFLAA,0,1996,-1022,-92,1,C043EC,228.00,14.00,26.00,0.50,1*35
$GPGGA,120043,4518.8062,N,07550.1108,W,1,12,0.92,1043.0,M,-34.3,M,,*78
$GPRMC,120043,A,4518.8062,N,07550.1108,W,23.1,195.0,100223,,,A*52
$PFLAU,1,1,2,1,0,138,0,-93,2260,C043EC*24
$PFLAA,0,2006,-1039,-93,1,C043EC,242.00,14.00,26.00,0.50,1*31
$GPGGA,120044,4518.7954,N,07550.1187,W,1,12,0.92,1044.0,M,-34.3,M,,*7C
$GPRMC,120044,A,4518.7954,N,07550.1187,W,23.1,207.0,100223,,,A*59
$PFLAU,1,1,2,1,0,125,0,-94,2279,C043EC*27
$PFLAA,0,2021,-1053,-94,1,C043EC,256.00,14.00,26.00,0.50,1*3A
$GPGGA,120045,4518.7852,N,07550.1299,W,1,12,0.92,1045.0,M,-34.3,M,,*77
$GPRMC,120045,A,4518.7852,N,07550.1299,W,23.1,219.0,100223,,,A*5C
$PFLAU,1,1,2,1,0,113,0,-95,2300,C043EC*2C
$PFLAA,0,2038,-1064,-95,1,C043EC,270.00,14.00,26.00,0.50,1*33
$GPGGA,120046,4518.7778,N,07550.1440,W,1,12,0.92,1046.0,M,-34.3,M,,*72
$GPRMC,120046,A,4518.7778,N,07550.1440,W,23.1,231.0,100223,,,A*50
$PFLAU,1,1,2,1,0,102,0,-96,2322,C043EC*2F
$PFLAA,0,2059,-1071,-96,1,C043EC,284.00,14.00,26.00,0.50,1*38
$GPGGA,120047,4518.7720,N,07550.1592,W,1,12,0.92,1047.0,M,-34.3,M,,*71
$GPRMC,120047,A,4518.7720,N,07550.1592,W,23.1,243.0,100223,,,A*57
$PFLAU,1,1,2,1,0,90,0,-97,2343,C043EC*13
$PFLAA,0,2082,-1073,-97,1,C043EC,298.00,14.00,26.00,0.50,1*30
$GPGGA,120048,4518.7686,N,07550.1768,W,1,12,0.92,1048.0,M,-34.3,M,,*7B
$GPRMC,120048,A,4518.7686,N,07550.1768,W,23.1,255.0,100223,,,A*55
$PFLAU,1,1,2,1,0,78,0,-98,2362,C043EC*19
$PFLAA,0,2105,-1070,-98,1,C043EC,312.00,14.00,26.00,0.50,1*31
$GPGGA,120049,4518.7681,N,07550.1948,W,1,12,0.92,1049.0,M,-34.3,M,,*70
$GPRMC,120049,A,4518.7681,N,07550.1948,W,23.1,267.0,100223,,,A*5E
$PFLAU,1,1,2,1,0,66,0,-99,2378,C043EC*1C
$PFLAA,0,2128,-1061,-99,1,C043EC,326.00,14.00,26.00,0.50,1*38
$GPGGA,120050,4518.7700,N,07550.2119,W,1,12,0.92,1050.0,M,-34.3,M,,*77
$GPRMC,120050,A,4518.7700,N,07550.2119,W,23.1,279.0,100223,,,A*5E
$PFLAU,1,1,2,1,0,55,0,-100,2390,C043EC*2B
$PFLAA,0,2148,-1047,-100,1,C043EC,340.00,14.00,26.00,0.50,1*0B
$GPGGA,120051,4518.7744,N,07550.2285,W,1,12,0.92,1051.0,M,-34.3,M,,*71
$GPRMC,120051,A,4518.7744,N,07550.2285,W,23.1,291.0,100223,,,A*5F
$PFLAU,1,1,2,1,0,44,0,-101,2398,C043EC*22
$PFLAA,0,2165,-1028,-101,1,C043EC,354.00,14.00,26.00,0.50,1*09
$GPGGA,120052,4518.7813,N,07550.2437,W,1,12,0.92,1052.0,M,-34.3,M,,*73
$GPRMC,120052,A,4518.7813,N,07550.2437,W,23.1,303.0,100223,,,A*54
$PFLAU,1,1,2,1,0,32,0,-102,2400,C043EC*26
$PFLAA,0,2178,-1005,-102,1,C043EC,8.00,14.00,26.00,0.50,1*03
$GPGGA,120053,4518.7900,N,07550.2559,W,1,12,0.92,1053.0,M,-34.3,M,,*79
$GPRMC,120053,A,4518.7900,N,07550.2559,W,23.1,315.0,100223,,,A*58
$PFLAU,1,1,2,1,0,21,0,-103,2396,C043EC*2D
$PFLAA,0,2186,-979,-103,1,C043EC,22.00,14.00,26.00,0.50,1*08
$GPGGA,120054,4518.8003,N,07550.2656,W,1,12,0.92,1054.0,M,-34.3,M,,*70
$GPRMC,120054,A,4518.8003,N,07550.2656,W,23.1,327.0,100223,,,A*57
$PFLAU,1,1,2,1,0,9,0,-104,2386,C043EC*11
$PFLAA,0,2187,-952,-104,1,C043EC,36.00,14.00,26.00,0.50,1*02
$GPGGA,120055,4518.8120,N,07550.2720,W,1,12,0.92,1055.0,M,-34.3,M,,*70
$GPRMC,120055,A,4518.8120,N,07550.2720,W,23.1,339.0,100223,,,A*59
$PFLAU,1,1,2,1,0,358,0,-105,2370,C043EC*1E
$PFLAA,0,2182,-924,-105,1,C043EC,50.00,14.00,26.00,0.50,1*07
$GPGGA,120056,4518.8247,N,07550.2749,W,1,12,0.92,1056.0,M,-34.3,M,,*7D
$GPRMC,120056,A,4518.8247,N,07550.2749,W,23.1,351.0,100223,,,A*59
$PFLAU,1,1,2,1,0,347,0,-106,2349,C043EC*19
$PFLAA,0,2171,-897,-106,1,C043EC,64.00,14.00,26.00,0.50,1*06
$GPGGA,120057,4518.8369,N,07550.2739,W,1,12,0.92,1057.0,M,-34.3,M,,*77
$GPRMC,120057,A,4518.8369,N,07550.2739,W,23.1,3.0,100223,,,A*56
$PFLAU,1,1,2,1,0,335,0,-107,2324,C043EC*16
$PFLAA,0,2153,-873,-107,1,C043EC,78.00,14.00,26.00,0.50,1*00
$GPGGA,120058,4518.8491,N,07550.2695,W,1,12,0.92,1058.0,M,-34.3,M,,*70
$GPRMC,120058,A,4518.8491,N,07550.2695,W,23.1,15.0,100223,,,A*69
$PFLAU,1,1,2,1,0,323,0,-108,2295,C043EC*15
$PFLAA,0,2129,-853,-108,1,C043EC,92.00,14.00,26.00,0.50,1*04
$GPGGA,120059,4518.8604,N,07550.2612,W,1,12,0.92,1059.0,M,-34.3,M,,*71
$GPRMC,120059,A,4518.8604,N,07550.2612,W,23.1,27.0,100223,,,A*68
$PFLAU,1,1,2,1,0,311,0,-109,2264,C043EC*1B
$PFLAA,0,2102,-839,-109,1,C043EC,106.00,14.00,26.00,0.50,1*3C
$GPGGA,120060,4518.8701,N,07550.2500,W,1,12,0.92,1060.0,M,-34.3,M,,*75
$GPRMC,120060,A,4518.8701,N,07550.2500,W,23.1,39.0,100223,,,A*69
$PFLAU,1,1,2,1,0,299,0,-110,2232,C043EC*11
$PFLAA,0,2071,-831,-110,1,C043EC,120.00,14.00,26.00,0.50,1*3D
$GPGGA,120100,4518.8779,N,07550.2363,W,1,12,0.92,1061.0,M,-34.3,M,,*7F
$GPRMC,120100,A,4518.8779,N,07550.2363,W,23.1,51.0,100223,,,A*6C
$PFLAU,1,1,2,1,0,287,0,-111,2202,C043EC*1C
$PFLAA,0,2038,-831,-111,1,C043EC,134.00,14.00,26.00,0.50,1*34
$GPGGA,120101,4518.8833,N,07550.2202,W,1,12,0.92,1062.0,M,-34.3,M,,*7A
$GPRMC,120101,A,4518.8833,N,07550.2202,W,23.1,63.0,100223,,,A*6B
$PFLAU,1,1,2,1,0,274,0,-112,2175,C043EC*10
$PFLAA,0,2006,-838,-112,1,C043EC,148.00,14.00,26.00,0.50,1*38
$GPGGA,120102,4518.8867,N,07550.2031,W,1,12,0.92,1063.0,M,-34.3,M,,*7B
$GPRMC,120102,A,4518.8867,N,07550.2031,W,23.1,75.0,100223,,,A*6C
$PFLAU,1,1,2,1,0,262,0,-113,2152,C043EC*13
$PFLAA,0,1976,-852,-113,1,C043EC,162.00,14.00,26.00,0.50,1*30
$GPGGA,120103,4518.8872,N,07550.1855,W,1,12,0.92,1064.0,M,-34.3,M,,*70
$GPRMC,120103,A,4518.8872,N,07550.1855,W,23.1,87.0,100223,,,A*6D
$PFLAU,1,1,2,1,0,249,0,-114,2136,C043EC*1F
$PFLAA,0,1949,-873,-114,1,C043EC,176.00,14.00,26.00,0.50,1*3D
$GPGGA,120104,4518.8853,N,07550.1680,W,1,12,0.92,1065.0,M,-34.3,M,,*73
$GPRMC,120104,A,4518.8853,N,07550.1680,W,23.1,99.0,100223,,,A*60
$PFLAU,1,1,2,1,0,236,0,-115,2128,C043EC*19
$PFLAA,0,1927,-901,-115,1,C043EC,190.00,14.00,26.00,0.50,1*38
$GPGGA,120105,4518.8809,N,07550.1514,W,1,12,0.92,1066.0,M,-34.3,M,,*70
$GPRMC,120105,A,4518.8809,N,07550.1514,W,23.1,111.0,100223,,,A*51
$PFLAU,1,1,2,1,0,223,0,-116,2128,C043EC*1E
$PFLAA,0,1912,-933,-116,1,C043EC,204.00,14.00,26.00,0.50,1*32
$GPGGA,120106,4518.8740,N,07550.1367,W,1,12,0.92,1067.0,M,-34.3,M,,*72
$GPRMC,120106,A,4518.8740,N,07550.1367,W,23.1,123.0,100223,,,A*53
$PFLAU,1,1,2,1,0,210,0,-117,2137,C043EC*11
$PFLAA,0,1904,-968,-117,1,C043EC,218.00,14.00,26.00,0.50,1*37
$GPGGA,120107,4518.8652,N,07550.1240,W,1,12,0.92,1068.0,M,-34.3,M,,*7A
$GPRMC,120107,A,4518.8652,N,07550.1240,W,23.1,135.0,100223,,,A*53
$PFLAU,1,1,2,1,0,197,0,-118,2154,C043EC*17
$PFLAA,0,1905,-1005,-118,1,C043EC,232.00,14.00,26.00,0.50,1*02
$GPGGA,120108,4518.8550,N,07550.1143,W,1,12,0.92,1069.0,M,-34.3,M,,*75
$GPRMC,120108,A,4518.8550,N,07550.1143,W,23.1,147.0,100223,,,A*58
$PFLAU,1,1,2,1,0,184,0,-119,2179,C043EC*1B
$PFLAA,0,1914,-1041,-119,1,C043EC,246.00,14.00,26.00,0.50,1*00
$GPGGA,120109,4518.8433,N,07550.1079,W,1,12,0.92,1070.0,M,-34.3,M,,*70
$GPRMC,120109,A,4518.8433,N,07550.1079,W,23.1,159.0,100223,,,A*5A
$PFLAU,1,1,2,1,0,172,0,-120,2210,C043EC*14
$PFLAA,0,1931,-1074,-120,1,C043EC,260.00,14.00,26.00,0.50,1*0F
$GPGGA,120110,4518.8306,N,07550.1055,W,1,12,0.92,1071.0,M,-34.3,M,,*76
$GPRMC,120110,A,4518.8306,N,07550.1055,W,23.1,171.0,100223,,,A*57
$PFLAU,1,1,2,1,0,160,0,-121,2246,C043EC*15
$PFLAA,0,1956,-1104,-121,1,C043EC,274.00,14.00,26.00,0.50,1*0C
$GPGGA,120111,4518.8184,N,07550.1064,W,1,12,0.92,1072.0,M,-34.3,M,,*7E
$GPRMC,120111,A,4518.8184,N,07550.1064,W,23.1,183.0,100223,,,A*51
$PFLAU,1,1,2,1,0,147,0,-122,2285,C043EC*1C
$PFLAA,0,1987,-1127,-122,1,C043EC,288.00,14.00,26.00,0.50,1*01
$GPGGA,120112,4518.8062,N,07550.1108,W,1,12,0.92,1073.0,M,-34.3,M,,*7E
$GPRMC,120112,A,4518.8062,N,07550.1108,W,23.1,195.0,100223,,,A*57
$PFLAU,1,1,2,1,0,136,0,-123,2324,C043EC*11
$PFLAA,0,2023,-1143,-123,1,C043EC,302.00,14.00,26.00,0.50,1*05
$GPGGA,120113,4518.7954,N,07550.1187,W,1,12,0.92,1074.0,M,-34.3,M,,*7C
$GPRMC,120113,A,4518.7954,N,07550.1187,W,23.1,207.0,100223,,,A*5A
$PFLAU,1,1,2,1,0,124,0,-124,2362,C043EC*17
$PFLAA,0,2062,-1150,-124,1,C043EC,316.00,14.00,26.00,0.50,1*00
$GPGGA,120114,4518.7852,N,07550.1299,W,1,12,0.92,1075.0,M,-34.3,M,,*71
$GPRMC,120114,A,4518.7852,N,07550.1299,W,23.1,219.0,100223,,,A*59
$PFLAU,1,1,2,1,0,112,0,-125,2396,C043EC*18
$PFLAA,0,2102,-1148,-125,1,C043EC,330.00,14.00,26.00,0.50,1*0B
$GPGGA,120115,4518.7778,N,07550.1440,W,1,12,0.92,1076.0,M,-34.3,M,,*76
$GPRMC,120115,A,4518.7778,N,07550.1440,W,23.1,231.0,100223,,,A*57
$PFLAU,1,1,2,1,0,101,0,-126,2425,C043EC*16
$PFLAA,0,2141,-1138,-126,1,C043EC,344.00,14.00,26.00,0.50,1*0B
$GPGGA,120116,4518.7720,N,07550.1592,W,1,12,0.92,1077.0,M,-34.3,M,,*77
$GPRMC,120116,A,4518.7720,N,07550.1592,W,23.1,243.0,100223,,,A*52
$PFLAU,1,1,2,1,0,90,0,-127,2448,C043EC*25
$PFLAA,0,2178,-1118,-127,1,C043EC,358.00,14.00,26.00,0.50,1*0F
$GPGGA,120117,4518.7686,N,07550.1768,W,1,12,0.92,1078.0,M,-34.3,M,,*73
$GPRMC,120117,A,4518.7686,N,07550.1768,W,23.1,255.0,100223,,,A*5E
$PFLAU,1,1,2,1,0,79,0,-128,2464,C043EC*23
$PFLAA,0,2209,-1090,-128,1,C043EC,12.00,14.00,26.00,0.50,1*39
$GPGGA,120118,4518.7681,N,07550.1948,W,1,12,0.92,1079.0,M,-34.3,M,,*76
$GPRMC,120118,A,4518.7681,N,07550.1948,W,23.1,267.0,100223,,,A*5B
$PFLAU,1,1,2,1,0,68,0,-129,2471,C043EC*26
$PFLAA,0,2233,-1056,-129,1,C043EC,26.00,14.00,26.00,0.50,1*3C
$GPGGA,120119,4518.7700,N,07550.2119,W,1,12,0.92,1080.0,M,-34.3,M,,*76
$GPRMC,120119,A,4518.7700,N,07550.2119,W,23.1,279.0,100223,,,A*52
$PFLAU,1,1,2,1,0,57,0,-130,2469,C043EC*2B
$PFLAA,0,2249,-1016,-130,1,C043EC,40.00,14.00,26.00,0.50,1*3D
$GPGGA,120120,4518.7744,N,07550.2285,W,1,12,0.92,1081.0,M,-34.3,M,,*7B
$GPRMC,120120,A,4518.7744,N,07550.2285,W,23.1,291.0,100223,,,A*58
$PFLAU,1,1,2,1,0,46,0,-131,2458,C043EC*28
$PFLAA,0,2256,-974,-131,1,C043EC,54.00,14.00,26.00,0.50,1*0B
$GPGGA,120121,4518.7813,N,07550.2437,W,1,12,0.92,1082.0,M,-34.3,M,,*7B
$GPRMC,120121,A,4518.7813,N,07550.2437,W,23.1,303.0,100223,,,A*51
$PFLAU,1,1,2,1,0,35,0,-132,2438,C043EC*29
$PFLAA,0,2253,-931,-132,1,C043EC,68.00,14.00,26.00,0.50,1*03
$GPGGA,120122,4518.7900,N,07550.2559,W,1,12,0.92,1083.0,M,-34.3,M,,*73
$GPRMC,120122,A,4518.7900,N,07550.2559,W,23.1,315.0,100223,,,A*5F
$PFLAU,1,1,2,1,0,23,0,-133,2411,C043EC*24
$PFLAA,0,2240,-889,-133,1,C043EC,82.00,14.00,26.00,0.50,1*06
$GPGGA,120123,4518.8003,N,07550.2656,W,1,12,0.92,1084.0,M,-34.3,M,,*7C
$GPRMC,120123,A,4518.8003,N,07550.2656,W,23.1,327.0,100223,,,A*56
$PFLAU,1,1,2,1,0,12,0,-134,2376,C043EC*27
$PFLAA,0,2218,-851,-134,1,C043EC,96.00,14.00,26.00,0.50,1*0C
$GPGGA,120124,4518.8120,N,07550.2720,W,1,12,0.92,1085.0,M,-34.3,M,,*7A
$GPRMC,120124,A,4518.8120,N,07550.2720,W,23.1,339.0,100223,,,A*5E
$PFLAU,1,1,2,1,0,0,0,-135,2336,C043EC*11
$PFLAA,0,2188,-818,-135,1,C043EC,110.00,14.00,26.00,0.50,1*35
$GPGGA,120125,4518.8247,N,07550.2749,W,1,12,0.92,1086.0,M,-34.3,M,,*75
$GPRMC,120125,A,4518.8247,N,07550.2749,W,23.1,351.0,100223,,,A*5C
$PFLAU,1,1,2,1,0,349,0,-136,2293,C043EC*12
$PFLAA,0,2150,-793,-136,1,C043EC,124.00,14.00,26.00,0.50,1*38
$GPGGA,120126,4518.8369,N,07550.2739,W,1,12,0.92,1087.0,M,-34.3,M,,*7D
$GPRMC,120126,A,4518.8369,N,07550.2739,W,23.1,3.0,100223,,,A*51
$PFLAU,1,1,2,1,0,337,0,-137,2248,C043EC*1C
$PFLAA,0,2108,-777,-137,1,C043EC,138.00,14.00,26.00,0.50,1*33
$GPGGA,120127,4518.8491,N,07550.2695,W,1,12,0.92,1088.0,M,-34.3,M,,*74
$GPRMC,120127,A,4518.8491,N,07550.2695,W,23.1,15.0,100223,,,A*60
$PFLAU,1,1,2,1,0,324,0,-138,2203,C043EC*1E
$PFLAA,0,2063,-771,-138,1,C043EC,152.00,14.00,26.00,0.50,1*3A
$GPGGA,120128,4518.8604,N,07550.2612,W,1,12,0.92,1089.0,M,-34.3,M,,*7B
$GPRMC,120128,A,4518.8604,N,07550.2612,W,23.1,27.0,100223,,,A*6F
$PFLAU,1,1,2,1,0,312,0,-139,2162,C043EC*1E
$PFLAA,0,2017,-775,-139,1,C043EC,166.00,14.00,26.00,0.50,1*3B
$GPGGA,120129,4518.8701,N,07550.2500,W,1,12,0.92,1090.0,M,-34.3,M,,*76
$GPRMC,120129,A,4518.8701,N,07550.2500,W,23.1,39.0,100223,,,A*65
$PFLAU,1,1,2,1,0,299,0,-140,2127,C043EC*13
$PFLAA,0,1974,-790,-140,1,C043EC,180.00,14.00,26.00,0.50,1*39
$GPGGA,120130,4518.8779,N,07550.2363,W,1,12,0.92,1091.0,M,-34.3,M,,*73
$GPRMC,120130,A,4518.8779,N,07550.2363,W,23.1,51.0,100223,,,A*6F
$PFLAU,1,1,2,1,0,286,0,-141,2099,C043EC*18
$PFLAA,0,1934,-814,-141,1,C043EC,194.00,14.00,26.00,0.50,1*3A
$GPGGA,120131,4518.8833,N,07550.2202,W,1,12,0.92,1092.0,M,-34.3,M,,*76
$GPRMC,120131,A,4518.8833,N,07550.2202,W,23.1,63.0,100223,,,A*68
$PFLAU,1,1,2,1,0,273,0,-142,2082,C043EC*1B
$PFLAA,0,1901,-847,-142,1,C043EC,208.00,14.00,26.00,0.50,1*3F
$GPGGA,120132,4518.8867,N,07550.2031,W,1,12,0.92,1093.0,M,-34.3,M,,*77
$GPRMC,120132,A,4518.8867,N,07550.2031,W,23.1,75.0,100223,,,A*6F
$PFLAU,1,1,2,1,0,260,0,-143,2076,C043EC*13
$PFLAA,0,1876,-886,-143,1,C043EC,222.00,14.00,26.00,0.50,1*3A
$GPGGA,120133,4518.8872,N,07550.1855,W,1,12,0.92,1094.0,M,-34.3,M,,*7C
$GPRMC,120133,A,4518.8872,N,07550.1855,W,23.1,87.0,100223,,,A*6E
$PFLAU,1,1,2,1,0,246,0,-144,2081,C043EC*18
$PFLAA,0,1860,-931,-144,1,C043EC,236.00,14.00,26.00,0.50,1*32
$GPGGA,120134,4518.8853,N,07550.1680,W,1,12,0.92,1095.0,M,-34.3,M,,*7F
$GPRMC,120134,A,4518.8853,N,07550.1680,W,23.1,99.0,100223,,,A*63
$PFLAU,1,1,2,1,0,233,0,-145,2098,C043EC*13
$PFLAA,0,1855,-978,-145,1,C043EC,250.00,14.00,26.00,0.50,1*38
$GPGGA,120135,4518.8809,N,07550.1514,W,1,12,0.92,1096.0,M,-34.3,M,,*7C
$GPRMC,120135,A,4518.8809,N,07550.1514,W,23.1,111.0,100223,,,A*52
$PFLAU,1,1,2,1,0,220,0,-146,2125,C043EC*15
$PFLAA,0,1861,-1025,-146,1,C043EC,264.00,14.00,26.00,0.50,1*0B
$GPGGA,120136,4518.8740,N,07550.1367,W,1,12,0.92,1097.0,M,-34.3,M,,*7E
$GPRMC,120136,A,4518.8740,N,07550.1367,W,23.1,123.0,100223,,,A*50
$PFLAU,1,1,2,1,0,207,0,-147,2161,C043EC*11
$PFLAA,0,1877,-1070,-147,1,C043EC,278.00,14.00,26.00,0.50,1*00
$GPGGA,120137,4518.8652,N,07550.1240,W,1,12,0.92,1098.0,M,-34.3,M,,*76
$GPRMC,120137,A,4518.8652,N,07550.1240,W,23.1,135.0,100223,,,A*50
$PFLAU,1,1,2,1,0,195,0,-148,2204,C043EC*16
$PFLAA,0,1903,-1110,-148,1,C043EC,292.00,14.00,26.00,0.50,1*0E
$GPGGA,120138,4518.8550,N,07550.1143,W,1,12,0.92,1099.0,M,-34.3,M,,*79
$GPRMC,120138,A,4518.8550,N,07550.1143,W,23.1,147.0,100223,,,A*5B
$PFLAU,1,1,2,1,0,182,0,-149,2251,C043EC*11
$PFLAA,0,1937,-1144,-149,1,C043EC,306.00,14.00,26.00,0.50,1*05
$GPGGA,120139,4518.8433,N,07550.1079,W,1,12,0.92,1100.0,M,-34.3,M,,*75
$GPRMC,120139,A,4518.8433,N,07550.1079,W,23.1,159.0,100223,,,A*59
$PFLAU,1,1,2,1,0,170,0,-150,2299,C043EC*10
$PFLAA,0,1979,-1169,-150,1,C043EC,320.00,14.00,26.00,0.50,1*0C
$GPGGA,120140,4518.8306,N,07550.1055,W,1,12,0.92,1101.0,M,-34.3,M,,*75
$GPRMC,120140,A,4518.8306,N,07550.1055,W,23.1,171.0,100223,,,A*52
$PFLAU,1,1,2,1,0,159,0,-151,2346,C043EC*19
$PFLAA,0,2025,-1183,-151,1,C043EC,334.00,14.00,26.00,0.50,1*0F
$GPGGA,120141,4518.8184,N,07550.1064,W,1,12,0.92,1102.0,M,-34.3,M,,*7D
$GPRMC,120141,A,4518.8184,N,07550.1064,W,23.1,183.0,100223,,,A*54
$PFLAU,1,1,2,1,0,147,0,-152,2390,C043EC*1E
$PFLAA,0,2073,-1188,-152,1,C043EC,348.00,14.00,26.00,0.50,1*0F
$GPGGA,120142,4518.8062,N,07550.1108,W,1,12,0.92,1103.0,M,-34.3,M,,*7D
$GPRMC,120142,A,4518.8062,N,07550.1108,W,23.1,195.0,100223,,,A*52
$PFLAU,1,1,2,1,0,136,0,-153,2428,C043EC*1D
$PFLAA,0,2121,-1181,-153,1,C043EC,2.00,14.00,26.00,0.50,1*0C
$GPGGA,120143,4518.7954,N,07550.1187,W,1,12,0.92,1104.0,M,-34.3,M,,*7F
$GPRMC,120143,A,4518.7954,N,07550.1187,W,23.1,207.0,100223,,,A*5F
$PFLAU,1,1,2,1,0,125,0,-154,2460,C043EC*14
$PFLAA,0,2166,-1163,-154,1,C043EC,16.00,14.00,26.00,0.50,1*31
$GPGGA,120144,4518.7852,N,07550.1299,W,1,12,0.92,1105.0,M,-34.3,M,,*72
$GPRMC,120144,A,4518.7852,N,07550.1299,W,23.1,219.0,100223,,,A*5C
$PFLAU,1,1,2,1,0,114,0,-155,2482,C043EC*1B
$PFLAA,0,2207,-1136,-155,1,C043EC,30.00,14.00,26.00,0.50,1*30
$GPGGA,120145,4518.7778,N,07550.1440,W,1,12,0.92,1106.0,M,-34.3,M,,*75
$GPRMC,120145,A,4518.7778,N,07550.1440,W,23.1,231.0,100223,,,A*52
$PFLAU,1,1,2,1,0,103,0,-156,2496,C043EC*1B
$PFLAA,0,2240,-1100,-156,1,C043EC,44.00,14.00,26.00,0.50,1*36
$GPGGA,120146,4518.7720,N,07550.1592,W,1,12,0.92,1107.0,M,-34.3,M,,*74
$GPRMC,120146,A,4518.7720,N,07550.1592,W,23.1,243.0,100223,,,A*57
$PFLAU,1,1,2,1,0,92,0,-157,2499,C043EC*2C
$PFLAA,0,2264,-1057,-157,1,C043EC,58.00,14.00,26.00,0.50,1*3F
$GPGGA,120147,4518.7686,N,07550.1768,W,1,12,0.92,1108.0,M,-34.3,M,,*70
$GPRMC,120147,A,4518.7686,N,07550.1768,W,23.1,255.0,100223,,,A*5B
$PFLAU,1,1,2,1,0,81,0,-158,2493,C043EC*2B
$PFLAA,0,2278,-1011,-158,1,C043EC,72.00,14.00,26.00,0.50,1*37
$GPGGA,120148,4518.7681,N,07550.1948,W,1,12,0.92,1109.0,M,-34.3,M,,*75
$GPRMC,120148,A,4518.7681,N,07550.1948,W,23.1,267.0,100223,,,A*5E
$PFLAU,1,1,2,1,0,70,0,-159,2476,C043EC*2F
$PFLAA,0,2281,-962,-159,1,C043EC,86.00,14.00,26.00,0.50,1*07
$GPGGA,120149,4518.7700,N,07550.2119,W,1,12,0.92,1110.0,M,-34.3,M,,*7B
$GPRMC,120149,A,4518.7700,N,07550.2119,W,23.1,279.0,100223,,,A*57
$PFLAU,1,1,2,1,0,59,0,-160,2450,C043EC*2A
$PFLAA,0,2273,-914,-160,1,C043EC,100.00,14.00,26.00,0.50,1*3E
$GPGGA,120150,4518.7744,N,07550.2285,W,1,12,0.92,1111.0,M,-34.3,M,,*74
$GPRMC,120150,A,4518.7744,N,07550.2285,W,23.1,291.0,100223,,,A*5F
$PFLAU,1,1,2,1,0,48,0,-161,2416,C043EC*29
$PFLAA,0,2254,-868,-161,1,C043EC,114.00,14.00,26.00,0.50,1*35
$GPGGA,120151,4518.7813,N,07550.2437,W,1,12,0.92,1112.0,M,-34.3,M,,*74
$GPRMC,120151,A,4518.7813,N,07550.2437,W,23.1,303.0,100223,,,A*56
$PFLAU,1,1,2,1,0,37,0,-162,2376,C043EC*23
$PFLAA,0,2226,-829,-162,1,C043EC,128.00,14.00,26.00,0.50,1*39
$GPGGA,120152,4518.7900,N,07550.2559,W,1,12,0.92,1113.0,M,-34.3,M,,*7C
$GPRMC,120152,A,4518.7900,N,07550.2559,W,23.1,315.0,100223,,,A*58
$PFLAU,1,1,2,1,0,25,0,-163,2330,C043EC*23
$PFLAA,0,2189,-797,-163,1,C043EC,142.00,14.00,26.00,0.50,1*38
$GPGGA,120153,4518.8003,N,07550.2656,W,1,12,0.92,1114.0,M,-34.3,M,,*73
$GPRMC,120153,A,4518.8003,N,07550.2656,W,23.1,327.0,100223,,,A*51
$PFLAU,1,1,2,1,0,13,0,-164,2282,C043EC*29
$PFLAA,0,2146,-773,-164,1,C043EC,156.00,14.00,26.00,0.50,1*33
$GPGGA,120154,4518.8120,N,07550.2720,W,1,12,0.92,1115.0,M,-34.3,M,,*75
$GPRMC,120154,A,4518.8120,N,07550.2720,W,23.1,339.0,100223,,,A*59
$PFLAU,1,1,2,1,0,1,0,-165,2233,C043EC*11
$PFLAA,0,2099,-761,-165,1,C043EC,170.00,14.00,26.00,0.50,1*36
$GPGGA,120155,4518.8247,N,07550.2749,W,1,12,0.92,1116.0,M,-34.3,M,,*7A
$GPRMC,120155,A,4518.8247,N,07550.2749,W,23.1,351.0,100223,,,A*5B
$PFLAU,1,1,2,1,0,349,0,-166,2187,C043EC*11
$PFLAA,0,2051,-759,-166,1,C043EC,184.00,14.00,26.00,0.50,1*31
$GPGGA,120156,4518.8369,N,07550.2739,W,1,12,0.92,1117.0,M,-34.3,M,,*72
$GPRMC,120156,A,4518.8369,N,07550.2739,W,23.1,3.0,100223,,,A*56
$PFLAU,1,1,2,1,0,336,0,-167,2146,C043EC*15
$PFLAA,0,2003,-768,-167,1,C043EC,198.00,14.00,26.00,0.50,1*38
$GPGGA,120157,4518.8491,N,07550.2695,W,1,12,0.92,1118.0,M,-34.3,M,,*7B
$GPRMC,120157,A,4518.8491,N,07550.2695,W,23.1,15.0,100223,,,A*67
$PFLAU,1,1,2,1,0,323,0,-168,2112,C043EC*1F
$PFLAA,0,1959,-788,-168,1,C043EC,212.00,14.00,26.00,0.50,1*3D
$GPGGA,120158,4518.8604,N,07550.2612,W,1,12,0.92,1119.0,M,-34.3,M,,*74
$GPRMC,120158,A,4518.8604,N,07550.2612,W,23.1,27.0,100223,,,A*68
$PFLAU,1,1,2,1,0,310,0,-169,2087,C043EC*13
$PFLAA,0,1920,-817,-169,1,C043EC,226.00,14.00,26.00,0.50,1*3C
$GPGGA,120159,4518.8701,N,07550.2500,W,1,12,0.92,1120.0,M,-34.3,M,,*7B
$GPRMC,120159,A,4518.8701,N,07550.2500,W,23.1,39.0,100223,,,A*62
$PFLAU,1,1,2,1,0,297,0,-170,2074,C043EC*19
$PFLAA,0,1889,-854,-170,1,C043EC,240.00,14.00,26.00,0.50,1*31
$GPGGA,120160,4518.8779,N,07550.2363,W,1,12,0.92,1121.0,M,-34.3,M,,*7C
$GPRMC,120160,A,4518.8779,N,07550.2363,W,23.1,51.0,100223,,,A*6A
$PFLAU,1,1,2,1,0,283,0,-171,2072,C043EC*1B
$PFLAA,0,1868,-896,-171,1,C043EC,254.00,14.00,26.00,0.50,1*34
$GPGGA,120200,4518.8833,N,07550.2202,W,1,12,0.92,1122.0,M,-34.3,M,,*7D
$GPRMC,120200,A,4518.8833,N,07550.2202,W,23.1,63.0,100223,,,A*69
$PFLAU,1,1,2,1,0,270,0,-172,2083,C043EC*1A
$PFLAA,0,1856,-943,-172,1,C043EC,268.00,14.00,26.00,0.50,1*3C
$GPGGA,120201,4518.8867,N,07550.2031,W,1,12,0.92,1123.0,M,-34.3,M,,*7E
$GPRMC,120201,A,4518.8867,N,07550.2031,W,23.1,75.0,100223,,,A*6C
$PFLAU,1,1,2,1,0,257,0,-173,2104,C043EC*10
$PFLAA,0,1856,-990,-173,1,C043EC,282.00,14.00,26.00,0.50,1*37
$GPGGA,120202,4518.8872,N,07550.1855,W,1,12,0.92,1124.0,M,-34.3,M,,*77
$GPRMC,120202,A,4518.8872,N,07550.1855,W,23.1,87.0,100223,,,A*6F
$PFLAU,1,1,2,1,0,244,0,-174,2135,C043EC*17
$PFLAA,0,1866,-1036,-174,1,C043EC,296.00,14.00,26.00,0.50,1*02
$GPGGA,120203,4518.8853,N,07550.1680,W,1,12,0.92,1125.0,M,-34.3,M,,*72
$GPRMC,120203,A,4518.8853,N,07550.1680,W,23.1,99.0,100223,,,A*64
$PFLAU,1,1,2,1,0,231,0,-175,2173,C043EC*16
$PFLAA,0,1886,-1079,-175,1,C043EC,310.00,14.00,26.00,0.50,1*09
$GPGGA,120204,4518.8809,N,07550.1514,W,1,12,0.92,1126.0,M,-34.3,M,,*77
$GPRMC,120204,A,4518.8809,N,07550.1514,W,23.1,111.0,100223,,,A*53
$PFLAU,1,1,2,1,0,219,0,-176,2217,C043EC*1E
$PFLAA,0,1915,-1116,-176,1,C043EC,324.00,14.00,26.00,0.50,1*0E
$GPGGA,120205,4518.8740,N,07550.1367,W,1,12,0.92,1127.0,M,-34.3,M,,*77
$GPRMC,120205,A,4518.8740,N,07550.1367,W,23.1,123.0,100223,,,A*53
$PFLAU,1,1,2,1,0,207,0,-177,2263,C043EC*13
$PFLAA,0,1952,-1145,-177,1,C043EC,338.00,14.00,26.00,0.50,1*07
$GPGGA,120206,4518.8652,N,07550.1240,W,1,12,0.92,1128.0,M,-34.3,M,,*7D
$GPRMC,120206,A,4518.8652,N,07550.1240,W,23.1,135.0,100223,,,A*51
$PFLAU,1,1,2,1,0,195,0,-178,2309,C043EC*19
$PFLAA,0,1993,-1165,-178,1,C043EC,352.00,14.00,26.00,0.50,1*0B
$GPGGA,120207,4518.8550,N,07550.1143,W,1,12,0.92,1129.0,M,-34.3,M,,*7C
$GPRMC,120207,A,4518.8550,N,07550.1143,W,23.1,147.0,100223,,,A*54
$PFLAU,1,1,2,1,0,183,0,-179,2353,C043EC*10
$PFLAA,0,2038,-1175,-179,1,C043EC,6.00,14.00,26.00,0.50,1*02
$GPGGA,120208,4518.8433,N,07550.1079,W,1,12,0.92,1130.0,M,-34.3,M,,*77
$GPRMC,120208,A,4518.8433,N,07550.1079,W,23.1,159.0,100223,,,A*58
$PFLAU,1,1,2,1,0,172,0,-180,2393,C043EC*14
$PFLAA,0,2084,-1174,-180,1,C043EC,20.00,14.00,26.00,0.50,1*36
$GPGGA,120209,4518.8306,N,07550.1055,W,1,12,0.92,1131.0,M,-34.3,M,,*78
$GPRMC,120209,A,4518.8306,N,07550.1055,W,23.1,171.0,100223,,,A*5C
$PFLAU,1,1,2,1,0,160,0,-181,2426,C043EC*1F
$PFLAA,0,2128,-1163,-181,1,C043EC,34.00,14.00,26.00,0.50,1*33
$GPGGA,120210,4518.8184,N,07550.1064,W,1,12,0.92,1132.0,M,-34.3,M,,*79
$GPRMC,120210,A,4518.8184,N,07550.1064,W,23.1,183.0,100223,,,A*53
$PFLAU,1,1,2,1,0,149,0,-182,2452,C043EC*14
$PFLAA,0,2169,-1143,-182,1,C043EC,48.00,14.00,26.00,0.50,1*3C
$GPGGA,120211,4518.8062,N,07550.1108,W,1,12,0.92,1133.0,M,-34.3,M,,*7B
$GPRMC,120211,A,4518.8062,N,07550.1108,W,23.1,195.0,100223,,,A*57
$PFLAU,1,1,2,1,0,138,0,-183,2470,C043EC*13
$PFLAA,0,2203,-1114,-183,1,C043EC,62.00,14.00,26.00,0.50,1*38
$GPGGA,120212,4518.7954,N,07550.1187,W,1,12,0.92,1134.0,M,-34.3,M,,*7B
$GPRMC,120212,A,4518.7954,N,07550.1187,W,23.1,207.0,100223,,,A*58
$PFLAU,1,1,2,1,0,127,0,-184,2478,C043EC*12
$PFLAA,0,2230,-1079,-184,1,C043EC,76.00,14.00,26.00,0.50,1*30
$GPGGA,120213,4518.7852,N,07550.1299,W,1,12,0.92,1135.0,M,-34.3,M,,*70
$GPRMC,120213,A,4518.7852,N,07550.1299,W,23.1,219.0,100223,,,A*5D
$PFLAU,1,1,2,1,0,116,0,-185,2477,C043EC*1E
$PFLAA,0,2248,-1038,-185,1,C043EC,90.00,14.00,26.00,0.50,1*33
$GPGGA,120214,4518.7778,N,07550.1440,W,1,12,0.92,1136.0,M,-34.3,M,,*71
$GPRMC,120214,A,4518.7778,N,07550.1440,W,23.1,231.0,100223,,,A*55
$PFLAU,1,1,2,1,0,105,0,-186,2467,C043EC*1E
$PFLAA,0,2256,-996,-186,1,C043EC,104.00,14.00,26.00,0.50,1*3F
$GPGGA,120215,4518.7720,N,07550.1592,W,1,12,0.92,1137.0,M,-34.3,M,,*72
$GPRMC,120215,A,4518.7720,N,07550.1592,W,23.1,243.0,100223,,,A*52
$PFLAU,1,1,2,1,0,94,0,-187,2448,C043EC*2B
$PFLAA,0,2255,-952,-187,1,C043EC,118.00,14.00,26.00,0.50,1*38
$GPGGA,120216,4518.7686,N,07550.1768,W,1,12,0.92,1138.0,M,-34.3,M,,*74
$GPRMC,120216,A,4518.7686,N,07550.1768,W,23.1,255.0,100223,,,A*5C
$PFLAU,1,1,2,1,0,83,0,-188,2422,C043EC*2E
$PFLAA,0,2244,-911,-188,1,C043EC,132.00,14.00,26.00,0.50,1*38
$GPGGA,120217,4518.7681,N,07550.1948,W,1,12,0.92,1139.0,M,-34.3,M,,*7F
$GPRMC,120217,A,4518.7681,N,07550.1948,W,23.1,267.0,100223,,,A*57
$PFLAU,1,1,2,1,0,72,0,-189,2389,C043EC*27
$PFLAA,0,2223,-873,-189,1,C043EC,146.00,14.00,26.00,0.50,1*3E
$GPGGA,120218,4518.7700,N,07550.2119,W,1,12,0.92,1140.0,M,-34.3,M,,*79
$GPRMC,120218,A,4518.7700,N,07550.2119,W,23.1,279.0,100223,,,A*50
$PFLAU,1,1,2,1,0,60,0,-190,2352,C043EC*2A
$PFLAA,0,2196,-842,-190,1,C043EC,160.00,14.00,26.00,0.50,1*3D
$GPGGA,120219,4518.7744,N,07550.2285,W,1,12,0.92,1141.0,M,-34.3,M,,*7F
$GPRMC,120219,A,4518.7744,N,07550.2285,W,23.1,291.0,100223,,,A*51
$PFLAU,1,1,2,1,0,48,0,-191,2312,C043EC*25
$PFLAA,0,2162,-817,-191,1,C043EC,174.00,14.00,26.00,0.50,1*32
$GPGGA,120220,4518.7813,N,07550.2437,W,1,12,0.92,1142.0,M,-34.3,M,,*74
$GPRMC,120220,A,4518.7813,N,07550.2437,W,23.1,303.0,100223,,,A*53
$PFLAU,1,1,2,1,0,36,0,-192,2271,C043EC*2B
$PFLAA,0,2124,-801,-192,1,C043EC,188.00,14.00,26.00,0.50,1*37
$GPGGA,120221,4518.7900,N,07550.2559,W,1,12,0.92,1143.0,M,-34.3,M,,*7E
$GPRMC,120221,A,4518.7900,N,07550.2559,W,23.1,315.0,100223,,,A*5F
$PFLAU,1,1,2,1,0,24,0,-193,2231,C043EC*2D
$PFLAA,0,2083,-795,-193,1,C043EC,202.00,14.00,26.00,0.50,1*39
$GPGGA,120222,4518.8003,N,07550.2656,W,1,12,0.92,1144.0,M,-34.3,M,,*73
$GPRMC,120222,A,4518.8003,N,07550.2656,W,23.1,327.0,100223,,,A*54
$PFLAU,1,1,2,1,0,12,0,-194,2194,C043EC*23
$PFLAA,0,2043,-797,-194,1,C043EC,216.00,14.00,26.00,0.50,1*35
$GPGGA,120223,4518.8120,N,07550.2720,W,1,12,0.92,1145.0,M,-34.3,M,,*73
$GPRMC,120223,A,4518.8120,N,07550.2720,W,23.1,339.0,100223,,,A*5A
$PFLAU,1,1,2,1,0,359,0,-195,2163,C043EC*16
$PFLAA,0,2005,-809,-195,1,C043EC,230.00,14.00,26.00,0.50,1*3A
$GPGGA,120224,4518.8247,N,07550.2749,W,1,12,0.92,1146.0,M,-34.3,M,,*7A
$GPRMC,120224,A,4518.8247,N,07550.2749,W,23.1,351.0,100223,,,A*5E
$PFLAU,1,1,2,1,0,346,0,-196,2139,C043EC*14
$PFLAA,0,1971,-828,-196,1,C043EC,244.00,14.00,26.00,0.50,1*30
$GPGGA,120225,4518.8369,N,07550.2739,W,1,12,0.92,1147.0,M,-34.3,M,,*70
$GPRMC,120225,A,4518.8369,N,07550.2739,W,23.1,3.0,100223,,,A*51
$PFLAU,1,1,2,1,0,333,0,-197,2123,C043EC*1C
$PFLAA,0,1942,-854,-197,1,C043EC,258.00,14.00,26.00,0.50,1*37
$GPGGA,120226,4518.8491,N,07550.2695,W,1,12,0.92,1148.0,M,-34.3,M,,*7B
$GPRMC,120226,A,4518.8491,N,07550.2695,W,23.1,15.0,100223,,,A*62
$PFLAU,1,1,2,1,0,320,0,-198,2116,C043EC*17
$PFLAA,0,1921,-886,-198,1,C043EC,272.00,14.00,26.00,0.50,1*3A
$GPGGA,120227,4518.8604,N,07550.2612,W,1,12,0.92,1149.0,M,-34.3,M,,*7A
$GPRMC,120227,A,4518.8604,N,07550.2612,W,23.1,27.0,100223,,,A*63
$PFLAU,1,1,2,1,0,307,0,-199,2119,C043EC*1C
$PFLAA,0,1907,-921,-199,1,C043EC,286.00,14.00,26.00,0.50,1*38
$GPGGA,120228,4518.8701,N,07550.2500,W,1,12,0.92,1150.0,M,-34.3,M,,*79
$GPRMC,120228,A,4518.8701,N,07550.2500,W,23.1,39.0,100223,,,A*67
$PFLAU,1,1,2,1,0,294,0,-200,2131,C043EC*1E
$PFLAA,0,1902,-958,-200,1,C043EC,300.00,14.00,26.00,0.50,1*3F
$GPGGA,120229,4518.8779,N,07550.2363,W,1,12,0.92,1151.0,M,-34.3,M,,*75
$GPRMC,120229,A,4518.8779,N,07550.2363,W,23.1,51.0,100223,,,A*64
$PFLAU,1,1,2,1,0,281,0,-201,2150,C043EC*1C
$PFLAA,0,1906,-995,-201,1,C043EC,314.00,14.00,26.00,0.50,1*3E
$GPGGA,120230,4518.8833,N,07550.2202,W,1,12,0.92,1152.0,M,-34.3,M,,*79
$GPRMC,120230,A,4518.8833,N,07550.2202,W,23.1,63.0,100223,,,A*6A
$PFLAU,1,1,2,1,0,269,0,-202,2176,C043EC*1D
$PFLAA,0,1917,-1029,-202,1,C043EC,328.00,14.00,26.00,0.50,1*0D
$GPGGA,120231,4518.8867,N,07550.2031,W,1,12,0.92,1153.0,M,-34.3,M,,*7A
$GPRMC,120231,A,4518.8867,N,07550.2031,W,23.1,75.0,100223,,,A*6F
$PFLAU,1,1,2,1,0,256,0,-203,2207,C043EC*15
$PFLAA,0,1935,-1059,-203,1,C043EC,342.00,14.00,26.00,0.50,1*07
$GPGGA,120232,4518.8872,N,07550.1855,W,1,12,0.92,1154.0,M,-34.3,M,,*73
$GPRMC,120232,A,4518.8872,N,07550.1855,W,23.1,87.0,100223,,,A*6C
$PFLAU,1,1,2,1,0,244,0,-204,2240,C043EC*12
$PFLAA,0,1960,-1084,-204,1,C043EC,356.00,14.00,26.00,0.50,1*05
$GPGGA,120233,4518.8853,N,07550.1680,W,1,12,0.92,1155.0,M,-34.3,M,,*76
$GPRMC,120233,A,4518.8853,N,07550.1680,W,23.1,99.0,100223,,,A*67
$PFLAU,1,1,2,1,0,232,0,-205,2275,C043EC*14
$PFLAA,0,1989,-1103,-205,1,C043EC,10.00,14.00,26.00,0.50,1*3C
$GPGGA,120234,4518.8809,N,07550.1514,W,1,12,0.92,1156.0,M,-34.3,M,,*73
$GPRMC,120234,A,4518.8809,N,07550.1514,W,23.1,111.0,100223,,,A*50
$PFLAU,1,1,2,1,0,220,0,-206,2308,C043EC*1F
$PFLAA,0,2021,-1114,-206,1,C043EC,24.00,14.00,26.00,0.50,1*36
$GPGGA,120235,4518.8740,N,07550.1367,W,1,12,0.92,1157.0,M,-34.3,M,,*73
$GPRMC,120235,A,4518.8740,N,07550.1367,W,23.1,123.0,100223,,,A*50
$PFLAU,1,1,2,1,0,208,0,-207,2338,C043EC*17
$PFLAA,0,2054,-1117,-207,1,C043EC,38.00,14.00,26.00,0.50,1*3B
$GPGGA,120236,4518.8652,N,07550.1240,W,1,12,0.92,1158.0,M,-34.3,M,,*79
$GPRMC,120236,A,4518.8652,N,07550.1240,W,23.1,135.0,100223,,,A*52
$PFLAU,1,1,2,1,0,197,0,-208,2365,C043EC*15
$PFLAA,0,2086,-1113,-208,1,C043EC,52.00,14.00,26.00,0.50,1*33
$GPGGA,120237,4518.8550,N,07550.1143,W,1,12,0.92,1159.0,M,-34.3,M,,*78
$GPRMC,120237,A,4518.8550,N,07550.1143,W,23.1,147.0,100223,,,A*57
$PFLAU,1,1,2,1,0,185,0,-209,2386,C043EC*1A
$PFLAA,0,2116,-1103,-209,1,C043EC,66.00,14.00,26.00,0.50,1*3C
$GPGGA,120238,4518.8433,N,07550.1079,W,1,12,0.92,1160.0,M,-34.3,M,,*71
$GPRMC,120238,A,4518.8433,N,07550.1079,W,23.1,159.0,100223,,,A*5B
$PFLAU,1,1,2,1,0,174,0,-210,2402,C043EC*17
$PFLAA,0,2142,-1086,-210,1,C043EC,80.00,14.00,26.00,0.50,1*31
$GPGGA,120239,4518.8306,N,07550.1055,W,1,12,0.92,1161.0,M,-34.3,M,,*7E
$GPRMC,120239,A,4518.8306,N,07550.1055,W,23.1,171.0,100223,,,A*5F
$PFLAU,1,1,2,1,0,163,0,-211,2411,C043EC*12
$PFLAA,0,2163,-1064,-211,1,C043EC,94.00,14.00,26.00,0.50,1*3A
$GPGGA,120240,4518.8184,N,07550.1064,W,1,12,0.92,1162.0,M,-34.3,M,,*79
$GPRMC,120240,A,4518.8184,N,07550.1064,W,23.1,183.0,100223,,,A*56
$PFLAU,1,1,2,1,0,152,0,-212,2413,C043EC*11
$PFLAA,0,2178,-1038,-212,1,C043EC,108.00,14.00,26.00,0.50,1*0E
$GPGGA,120241,4518.8062,N,07550.1108,W,1,12,0.92,1163.0,M,-34.3,M,,*7B
$GPRMC,120241,A,4518.8062,N,07550.1108,W,23.1,195.0,100223,,,A*52
$PFLAU,1,1,2,1,0,140,0,-213,2409,C043EC*18
$PFLAA,0,2187,-1010,-213,1,C043EC,122.00,14.00,26.00,0.50,1*0D
$GPGGA,120242,4518.7954,N,07550.1187,W,1,12,0.92,1164.0,M,-34.3,M,,*7B
$GPRMC,120242,A,4518.7954,N,07550.1187,W,23.1,207.0,100223,,,A*5D
$PFLAU,1,1,2,1,0,129,0,-214,2399,C043EC*1E
$PFLAA,0,2189,-982,-214,1,C043EC,136.00,14.00,26.00,0.50,1*32
$GPGGA,120243,4518.7852,N,07550.1299,W,1,12,0.92,1165.0,M,-34.3,M,,*70
$GPRMC,120243,A,4518.7852,N,07550.1299,W,23.1,219.0,100223,,,A*58
$PFLAU,1,1,2,1,0,117,0,-215,2384,C043EC*1E
$PFLAA,0,2184,-954,-215,1,C043EC,150.00,14.00,26.00,0.50,1*35
$GPGGA,120244,4518.7778,N,07550.1440,W,1,12,0.92,1166.0,M,-34.3,M,,*71
$GPRMC,120244,A,4518.7778,N,07550.1440,W,23.1,231.0,100223,,,A*50
$PFLAU,1,1,2,1,0,106,0,-216,2365,C043EC*12
$PFLAA,0,2174,-929,-216,1,C043EC,164.00,14.00,26.00,0.50,1*34
$GPGGA,120245,4518.7720,N,07550.1592,W,1,12,0.92,1167.0,M,-34.3,M,,*72
$GPRMC,120245,A,4518.7720,N,07550.1592,W,23.1,243.0,100223,,,A*57
$PFLAU,1,1,2,1,0,94,0,-217,2343,C043EC*2D
$PFLAA,0,2159,-908,-217,1,C043EC,178.00,14.00,26.00,0.50,1*34
$GPGGA,120246,4518.7686,N,07550.1768,W,1,12,0.92,1168.0,M,-34.3,M,,*74
$GPRMC,120246,A,4518.7686,N,07550.1768,W,23.1,255.0,100223,,,A*59
$PFLAU,1,1,2,1,0,82,0,-218,2319,C043EC*2A
$PFLAA,0,2140,-891,-218,1,C043EC,192.00,14.00,26.00,0.50,1*36
$GPGGA,120247,4518.7681,N,07550.1948,W,1,12,0.92,1169.0,M,-34.3,M,,*7F
$GPRMC,120247,A,4518.7681,N,07550.1948,W,23.1,267.0,100223,,,A*52
$PFLAU,1,1,2,1,0,70,0,-219,2294,C043EC*22
$PFLAA,0,2118,-879,-219,1,C043EC,206.00,14.00,26.00,0.50,1*32
$GPGGA,120248,4518.7700,N,07550.2119,W,1,12,0.92,1170.0,M,-34.3,M,,*7F
$GPRMC,120248,A,4518.7700,N,07550.2119,W,23.1,279.0,100223,,,A*55
$PFLAU,1,1,2,1,0,58,0,-220,2270,C043EC*28
$PFLAA,0,2095,-872,-220,1,C043EC,220.00,14.00,26.00,0.50,1*33
$GPGGA,120249,4518.7744,N,07550.2285,W,1,12,0.92,1171.0,M,-34.3,M,,*79
$GPRMC,120249,A,4518.7744,N,07550.2285,W,23.1,291.0,100223,,,A*54
$PFLAU,1,1,2,1,0,46,0,-221,2248,C043EC*2D
$PFLAA,0,2071,-872,-221,1,C043EC,234.00,14.00,26.00,0.50,1*3D
$GPGGA,120250,4518.7813,N,07550.2437,W,1,12,0.92,1172.0,M,-34.3,M,,*70
$GPRMC,120250,A,4518.7813,N,07550.2437,W,23.1,303.0,100223,,,A*54
$PFLAU,1,1,2,1,0,34,0,-222,2229,C043EC*2C
$PFLAA,0,2049,-876,-222,1,C043EC,248.00,14.00,26.00,0.50,1*3A
$GPGGA,120251,4518.7900,N,07550.2559,W,1,12,0.92,1173.0,M,-34.3,M,,*7A
$GPRMC,120251,A,4518.7900,N,07550.2559,W,23.1,315.0,100223,,,A*58
$PFLAU,1,1,2,1,0,21,0,-223,2214,C043EC*27
$PFLAA,0,2029,-885,-223,1,C043EC,262.00,14.00,26.00,0.50,1*39
$GPGGA,120252,4518.8003,N,07550.2656,W,1,12,0.92,1174.0,M,-34.3,M,,*77
$GPRMC,120252,A,4518.8003,N,07550.2656,W,23.1,327.0,100223,,,A*53
$PFLAU,1,1,2,1,0,9,0,-224,2204,C043EC*1B
$PFLAA,0,2012,-898,-224,1,C043EC,276.00,14.00,26.00,0.50,1*3F
$GPGGA,120253,4518.8120,N,07550.2720,W,1,12,0.92,1175.0,M,-34.3,M,,*77
$GPRMC,120253,A,4518.8120,N,07550.2720,W,23.1,339.0,100223,,,A*5D
$PFLAU,1,1,2,1,0,356,0,-225,2199,C043EC*14
$PFLAA,0,2000,-914,-225,1,C043EC,290.00,14.00,26.00,0.50,1*30
$GPGGA,120254,4518.8247,N,07550.2749,W,1,12,0.92,1176.0,M,-34.3,M,,*7E
$GPRMC,120254,A,4518.8247,N,07550.2749,W,23.1,351.0,100223,,,A*59
$PFLAU,1,1,2,1,0,344,0,-226,2199,C043EC*14
$PFLAA,0,1991,-932,-226,1,C043EC,304.00,14.00,26.00,0.50,1*39
$GPGGA,120255,4518.8369,N,07550.2739,W,1,12,0.92,1177.0,M,-34.3,M,,*74
$GPRMC,120255,A,4518.8369,N,07550.2739,W,23.1,3.0,100223,,,A*56
$PFLAU,1,1,2,1,0,331,0,-227,2203,C043EC*17
$PFLAA,0,1987,-950,-227,1,C043EC,318.00,14.00,26.00,0.50,1*36
$GPGGA,120256,4518.8491,N,07550.2695,W,1,12,0.92,1178.0,M,-34.3,M,,*7F
$GPRMC,120256,A,4518.8491,N,07550.2695,W,23.1,15.0,100223,,,A*65
$PFLAU,1,1,2,1,0,319,0,-228,2211,C043EC*11
$PFLAA,0,1987,-968,-228,1,C043EC,332.00,14.00,26.00,0.50,1*3A
$GPGGA,120257,4518.8604,N,07550.2612,W,1,12,0.92,1179.0,M,-34.3,M,,*7E
$GPRMC,120257,A,4518.8604,N,07550.2612,W,23.1,27.0,100223,,,A*64
$PFLAU,1,1,2,1,0,307,0,-229,2223,C043EC*1E
$PFLAA,0,1992,-985,-229,1,C043EC,346.00,14.00,26.00,0.50,1*3F
$GPGGA,120258,4518.8701,N,07550.2500,W,1,12,0.92,1180.0,M,-34.3,M,,*73
$GPRMC,120258,A,4518.8701,N,07550.2500,W,23.1,39.0,100223,,,A*60
$PFLAU,1,1,2,1,0,294,0,-230,2236,C043EC*19
$PFLAA,0,2000,-1000,-230,1,C043EC,0.00,14.00,26.00,0.50,1*02
$GPGGA,120259,4518.8779,N,07550.2363,W,1,12,0.92,1181.0,M,-34.3,M,,*7F
$GPRMC,120259,A,4518.8779,N,07550.2363,W,23.1,51.0,100223,,,A*63
$PFLAU,1,1,2,1,0,282,0,-231,2251,C043EC*1E
$PFLAA,0,2010,-1011,-231,1,C043EC,14.00,14.00,26.00,0.50,1*37
$GPGGA,120260,4518.8833,N,07550.2202,W,1,12,0.92,1182.0,M,-34.3,M,,*71
$GPRMC,120260,A,4518.8833,N,07550.2202,W,23.1,63.0,100223,,,A*6F
$PFLAU,1,1,2,1,0,270,0,-232,2265,C043EC*17
$PFLAA,0,2022,-1020,-232,1,C043EC,28.00,14.00,26.00,0.50,1*38
$GPGGA,120300,4518.8867,N,07550.2031,W,1,12,0.92,1183.0,M,-34.3,M,,*74
$GPRMC,120300,A,4518.8867,N,07550.2031,W,23.1,75.0,100223,,,A*6C
$PFLAU,1,1,2,1,0,258,0,-233,2279,C043EC*11
$PFLAA,0,2035,-1025,-233,1,C043EC,42.00,14.00,26.00,0.50,1*36
$GPGGA,120301,4518.8872,N,07550.1855,W,1,12,0.92,1184.0,M,-34.3,M,,*7F
$GPRMC,120301,A,4518.8872,N,07550.1855,W,23.1,87.0,100223,,,A*6D
$PFLAU,1,1,2,1,0,246,0,-234,2292,C043EC*1C
$PFLAA,0,2048,-1027,-234,1,C043EC,56.00,14.00,26.00,0.50,1*3C
$GPGGA,120302,4518.8853,N,07550.1680,W,1,12,0.92,1185.0,M,-34.3,M,,*78
$GPRMC,120302,A,4518.8853,N,07550.1680,W,23.1,99.0,100223,,,A*64
$PFLAU,1,1,2,1,0,235,0,-235,2303,C043EC*10
$PFLAA,0,2061,-1025,-235,1,C043EC,70.00,14.00,26.00,0.50,1*30
$GPGGA,120303,4518.8809,N,07550.1514,W,1,12,0.92,1186.0,M,-34.3,M,,*7B
$GPRMC,120303,A,4518.8809,N,07550.1514,W,23.1,111.0,100223,,,A*55
$PFLAU,1,1,2,1,0,223,0,-236,2311,C043EC*17
$PFLAA,0,2072,-1021,-236,1,C043EC,84.00,14.00,26.00,0.50,1*3E
$GPGGA,120304,4518.8740,N,07550.1367,W,1,12,0.92,1187.0,M,-34.3,M,,*7D
$GPRMC,120304,A,4518.8740,N,07550.1367,W,23.1,123.0,100223,,,A*53
$PFLAU,1,1,2,1,0,211,0,-237,2316,C043EC*10
$PFLAA,0,2081,-1015,-237,1,C043EC,98.00,14.00,26.00,0.50,1*39
$GPGGA,120305,4518.8652,N,07550.1240,W,1,12,0.92,1188.0,M,-34.3,M,,*75
$GPRMC,120305,A,4518.8652,N,07550.1240,W,23.1,135.0,100223,,,A*53
$PFLAU,1,1,2,1,0,199,0,-238,2319,C043EC*13
$PFLAA,0,2088,-1008,-238,1,C043EC,112.00,14.00,26.00,0.50,1*00
$GPGGA,120306,4518.8550,N,07550.1143,W,1,12,0.92,1189.0,M,-34.3,M,,*76
$GPRMC,120306,A,4518.8550,N,07550.1143,W,23.1,147.0,100223,,,A*54
$PFLAU,1,1,2,1,0,187,0,-239,2319,C043EC*1D
$PFLAA,0,2092,-1000,-239,1,C043EC,126.00,14.00,26.00,0.50,1*05
$GPGGA,120307,4518.8433,N,07550.1079,W,1,12,0.92,1190.0,M,-34.3,M,,*73
$GPRMC,120307,A,4518.8433,N,07550.1079,W,23.1,159.0,100223,,,A*56
$PFLAU,1,1,2,1,0,176,0,-240,2317,C043EC*13
$PFLAA,0,2094,-992,-240,1,C043EC,140.00,14.00,26.00,0.50,1*3E
$GPGGA,120308,4518.8306,N,07550.1055,W,1,12,0.92,1191.0,M,-34.3,M,,*72
$GPRMC,120308,A,4518.8306,N,07550.1055,W,23.1,171.0,100223,,,A*5C
$PFLAU,1,1,2,1,0,164,0,-241,2314,C043EC*12
$PFLAA,0,2094,-984,-241,1,C043EC,154.00,14.00,26.00,0.50,1*3D
$GPGGA,120309,4518.8184,N,07550.1064,W,1,12,0.92,1192.0,M,-34.3,M,,*7A
$GPRMC,120309,A,4518.8184,N,07550.1064,W,23.1,183.0,100223,,,A*5A
$PFLAU,1,1,2,1,0,152,0,-242,2309,C043EC*18
$PFLAA,0,2091,-977,-242,1,C043EC,168.00,14.00,26.00,0.50,1*38
$GPGGA,120310,4518.8062,N,07550.1108,W,1,12,0.92,1193.0,M,-34.3,M,,*71
$GPRMC,120310,A,4518.8062,N,07550.1108,W,23.1,195.0,100223,,,A*57
$PFLAU,1,1,2,1,0,140,0,-243,2304,C043EC*17
$PFLAA,0,2088,-972,-243,1,C043EC,182.00,14.00,26.00,0.50,1*30
$GPGGA,120311,4518.7954,N,07550.1187,W,1,12,0.92,1194.0,M,-34.3,M,,*73
$GPRMC,120311,A,4518.7954,N,07550.1187,W,23.1,207.0,100223,,,A*5A
$PFLAU,1,1,2,1,0,128,0,-244,2299,C043EC*1B
$PFLAA,0,2084,-969,-244,1,C043EC,196.00,14.00,26.00,0.50,1*34
$GPGGA,120312,4518.7852,N,07550.1299,W,1,12,0.92,1195.0,M,-34.3,M,,*7A
$GPRMC,120312,A,4518.7852,N,07550.1299,W,23.1,219.0,100223,,,A*5D
$PFLAU,1,1,2,1,0,116,0,-245,2294,C043EC*1A
$PFLAA,0,2080,-967,-245,1,C043EC,210.00,14.00,26.00,0.50,1*32
$GPGGA,120313,4518.7778,N,07550.1440,W,1,12,0.92,1196.0,M,-34.3,M,,*7D
$GPRMC,120313,A,4518.7778,N,07550.1440,W,23.1,231.0,100223,,,A*53
$PFLAU,1,1,2,1,0,104,0,-246,2291,C043EC*1F
$PFLAA,0,2076,-967,-246,1,C043EC,224.00,14.00,26.00,0.50,1*3F
$GPGGA,120314,4518.7720,N,07550.1592,W,1,12,0.92,1197.0,M,-34.3,M,,*78
$GPRMC,120314,A,4518.7720,N,07550.1592,W,23.1,243.0,100223,,,A*52
$PFLAU,1,1,2,1,0,92,0,-247,2288,C043EC*28
$PFLAA,0,2073,-968,-247,1,C043EC,238.00,14.00,26.00,0.50,1*39
$GPGGA,120315,4518.7686,N,07550.1768,W,1,12,0.92,1198.0,M,-34.3,M,,*7C
$GPRMC,120315,A,4518.7686,N,07550.1768,W,23.1,255.0,100223,,,A*5E
$PFLAU,1,1,2,1,0,80,0,-248,2287,C043EC*2B
$PFLAA,0,2071,-970,-248,1,C043EC,252.00,14.00,26.00,0.50,1*31
$GPGGA,120316,4518.7681,N,07550.1948,W,1,12,0.92,1199.0,M,-34.3,M,,*75
$GPRMC,120316,A,4518.7681,N,07550.1948,W,23.1,267.0,100223,,,A*57
$PFLAU,1,1,2,1,0,68,0,-249,2288,C043EC*23
$PFLAA,0,2070,-973,-249,1,C043EC,266.00,14.00,26.00,0.50,1*35