$PFLAA,0,2055,-921,-83,1,C043EC,102.00,14.00,26.00,0.50,1*00
$PFLAA,0,-37,-2244,99,1,C05FDB,192.00,-16.00,26.00,4.00,1*64
$PFLAA,0,628,598,54,1,C05CBA,225.00,0.00,36.00,-1.00,1*55
$PFLAU,3,1,2,1,0,329,0,54,868,C05CBA*46
$GPGGA,120034,4518.8872,N,07550.1855,W,1,12,0.92,1034.0,M,-34.3,M,,*70
$GPRMC,120034,A,4518.8872,N,07550.1855,W,23.1,87.0,100223,,,A*68
$PFLAA,0,2043,-921,-84,1,C043EC,116.00,14.00,26.00,0.50,1*05
$PFLAA,0,-64,-2265,102,1,C05FDB,176.00,-16.00,26.00,4.00,1*58
$PFLAA,0,601,550,52,1,C05CBA,225.00,0.00,36.00,-1.00,1*5C
$PFLAU,3,1,2,1,0,315,0,52,815,C05CBA*45
$GPGGA,120035,4518.8853,N,07550.1680,W,1,12,0.92,1035.0,M,-34.3,M,,*75
$GPRMC,120035,A,4518.8853,N,07550.1680,W,23.1,99.0,100223,,,A*63
$PFLAA,0,2030,-925,-85,1,C043EC,130.00,14.00,26.00,0.50,1*00
$PFLAA,0,-84,-2280,105,1,C05FDB,160.00,-16.00,26.00,4.00,1*5D
$PFLAA,0,580,501,50,1,C05CBA,225.00,0.00,36.00,-1.00,1*50
$PFLAU,3,1,2,1,0,302,0,50,767,C05CBA*4B
$GPGGA,120036,4518.8809,N,07550.1514,W,1,12,0.92,1036.0,M,-34.3,M,,*74
$GPRMC,120036,A,4518.8809,N,07550.1514,W,23.1,111.0,100223,,,A*50
$PFLAA,0,2017,-931,-86,1,C043EC,144.00,14.00,26.00,0.50,1*00
$PFLAA,0,-97,-2286,108,1,C05FDB,144.00,-16.00,26.00,4.00,1*52
$PFLAA,0,562,454,48,1,C05CBA,225.00,0.00,36.00,-1.00,1*54
$PFLAU,3,1,2,1,0,288,0,48,724,C05CBA*46
$GPGGA,120037,4518.8740,N,07550.1367,W,1,12,0.92,1037.0,M,-34.3,M,,*74
$GPRMC,120037,A,4518.8740,N,07550.1367,W,23.1,123.0,100223,,,A*50
$PFLAA,0,2006,-941,-87,1,C043EC,158.00,14.00,26.00,0.50,1*0B
$PFLAA,0,-100,-2285,111,1,C05FDB,128.00,-16.00,26.00,4.00,1*6C
$PFLAA,0,550,409,46,1,C05CBA,225.00,0.00,36.00,-1.00,1*53
$PFLAU,3,1,2,1,0,274,0,46,686,C05CBA*42
$GPGGA,120038,4518.8652,N,07550.1240,W,1,12,0.92,1038.0,M,-34.3,M,,*72
$GPRMC,120038,A,4518.8652,N,07550.1240,W,23.1,135.0,100223,,,A*5E
$PFLAA,0,1997,-954,-88,1,C043EC,172.00,14.00,26.00,0.50,1*0A
$PFLAA,0,-93,-2278,114,1,C05FDB,112.00,-16.00,26.00,4.00,1*59
$PFLAA,0,541,368,44,1,C05CBA,225.00,0.00,36.00,-1.00,1*51
$PFLAU,3,1,2,1,0,259,0,44,654,C05CBA*40
$GPGGA,120039,4518.8550,N,07550.1143,W,1,12,0.92,1039.0,M,-34.3,M,,*73
$GPRMC,120039,A,4518.8550,N,07550.1143,W,23.1,147.0,100223,,,A*5B
$PFLAA,0,1991,-969,-89,1,C043EC,186.00,14.00,26.00,0.50,1*08
$PFLAA,0,-77,-2265,117,1,C05FDB,96.00,-16.00,26.00,4.00,1*61
$PFLAA,0,534,329,42,1,C05CBA,225.00,0.00,36.00,-1.00,1*50
$PFLAU,3,1,2,1,0,245,0,42,629,C05CBA*41
$GPGGA,120040,4518.8433,N,07550.1079,W,1,12,0.92,1040.0,M,-34.3,M,,*7F
$GPRMC,120040,A,4518.8433,N,07550.1079,W,23.1,159.0,100223,,,A*56
$PFLAA,0,1988,-986,-90,1,C043EC,200.00,14.00,26.00,0.50,1*04
$PFLAA,0,-51,-2248,120,1,C05FDB,80.00,-16.00,26.00,4.00,1*69
$PFLAA,0,531,296,40,1,C05CBA,225.00,0.00,36.00,-1.00,1*52
$PFLAU,3,1,2,1,0,230,0,40,608,C05CBA*42
$GPGGA,120041,4518.8306,N,07550.1055,W,1,12,0.92,1041.0,M,-34.3,M,,*70
$GPRMC,120041,A,4518.8306,N,07550.1055,W,23.1,171.0,100223,,,A*52
$PFLAA,0,1990,-1004,-91,1,C043EC,214.00,14.00,26.00,0.50,1*3B
$PFLAA,0,-16,-2228,123,1,C05FDB,64.00,-16.00,26.00,4.00,1*65
$PFLAA,1,528,267,38,1,C05CBA,225.00,0.00,36.00,-1.00,1*5A
$PFLAU,3,1,2,1,1,216,2,38,592,C05CBA*4A
$GPGGA,120042,4518.8184,N,07550.1064,W,1,12,0.92,1042.0,M,-34.3,M,,*7A
$GPRMC,120042,A,4518.8184,N,07550.1064,W,23.1,183.0,100223,,,A*56
$PFLAA,0,1996,-1022,-92,1,C043EC,228.00,14.00,26.00,0.50,1*35
$PFLAA,0,23,-2208,126,1,C05FDB,48.00,-16.00,26.00,4.00,1*47
$PFLAA,1,526,242,36,1,C05CBA,225.00,0.00,36.00,-1.00,1*5D
$PFLAU,3,1,2,1,1,202,2,36,580,C05CBA*42
$GPGGA,120043,4518.8062,N,07550.1108,W,1,12,0.92,1043.0,M,-34.3,M,,*78
$GPRMC,120043,A,4518.8062,N,07550.1108,W,23.1,195.0,100223,,,A*52
$PFLAA,0,2006,-1039,-93,1,C043EC,242.00,14.00,26.00,0.50,1*31
$PFLAA,0,67,-2188,129,1,C05FDB,32.00,-16.00,26.00,4.00,1*4E
$PFLAA,1,523,223,34,1,C05CBA,225.00,0.00,36.00,-1.00,1*5D
$PFLAU,3,1,2,1,1,188,2,34,569,C05CBA*46
$GPGGA,120044,4518.7954,N,07550.1187,W,1,12,0.92,1044.0,M,-34.3,M,,*7C
$GPRMC,120044,A,4518.7954,N,07550.1187,W,23.1,207.0,100223,,,A*59
$PFLAA,0,2021,-1053,-94,1,C043EC,256.00,14.00,26.00,0.50,1*3A
$PFLAA,0,112,-2171,132,1,C05FDB,16.00,-16.00,26.00,4.00,1*77
$PFLAA,1,518,208,32,1,C05CBA,225.00,0.00,36.00,-1.00,1*5A
$PFLAU,3,1,2,1,1,175,2,32,559,C05CBA*41
$GPGGA,120045,4518.7852,N,07550.1299,W,1,12,0.92,1045.0,M,-34.3,M,,*77
$GPRMC,120045,A,4518.7852,N,07550.1299,W,23.1,219.0,100223,,,A*5C
$PFLAA,0,2038,-1064,-95,1,C043EC,270.00,14.00,26.00,0.50,1*33
$PFLAA,0,156,-2156,135,1,C05FDB,0.00,-16.00,26.00,4.00,1*42
$PFLAA,1,510,197,30,1,C05CBA,225.00,0.00,36.00,-1.00,1*55
$PFLAU,3,1,2,1,1,162,2,30,548,C05CBA*45
$GPGGA,120046,4518.7778,N,07550.1440,W,1,12,0.92,1046.0,M,-34.3,M,,*72
$GPRMC,120046,A,4518.7778,N,07550.1440,W,23.1,231.0,100223,,,A*50
$PFLAA,0,2059,-1071,-96,1,C043EC,284.00,14.00,26.00,0.50,1*38
$PFLAA,0,195,-2145,138,1,C05FDB,344.00,-16.00,26.00,4.00,1*41
$PFLAA,1,499,190,28,1,C05CBA,225.00,0.00,36.00,-1.00,1*5B
$PFLAU,3,1,2,1,1,150,2,28,535,C05CBA*47
$GPGGA,120047,4518.7720,N,07550.1592,W,1,12,0.92,1047.0,M,-34.3,M,,*71
$GPRMC,120047,A,4518.7720,N,07550.1592,W,23.1,243.0,100223,,,A*57
$PFLAA,0,2082,-1073,-97,1,C043EC,298.00,14.00,26.00,0.50,1*30
$PFLAA,0,228,-2138,141,1,C05FDB,328.00,-16.00,26.00,4.00,1*4A
$PFLAA,2,484,185,26,1,C05CBA,225.00,0.00,36.00,-1.00,1*5E
$PFLAU,3,1,2,1,2,138,2,26,519,C05CBA*4A
$GPGGA,120048,4518.7686,N,07550.1768,W,1,12,0.92,1048.0,M,-34.3,M,,*7B
$GPRMC,120048,A,4518.7686,N,07550.1768,W,23.1,255.0,100223,,,A*55
$PFLAA,0,2105,-1070,-98,1,C043EC,312.00,14.00,26.00,0.50,1*31
$PFLAA,0,251,-2135,144,1,C05FDB,312.00,-16.00,26.00,4.00,1*45
$PFLAA,2,465,182,24,1,C05CBA,225.00,0.00,36.00,-1.00,1*54
$PFLAU,3,1,2,1,2,126,2,24,500,C05CBA*4F
$GPGGA,120049,4518.7681,N,07550.1948,W,1,12,0.92,1049.0,M,-34.3,M,,*70
$GPRMC,120049,A,4518.7681,N,07550.1948,W,23.1,267.0,100223,,,A*5E
$PFLAA,0,2128,-1061,-99,1,C043EC,326.00,14.00,26.00,0.50,1*38
$PFLAA,0,263,-2135,147,1,C05FDB,296.00,-16.00,26.00,4.00,1*4A
$PFLAA,2,441,179,22,1,C05CBA,225.00,0.00,36.00,-1.00,1*50
$PFLAU,3,1,2,1,2,115,2,22,476,C05CBA*49
$GPGGA,120050,4518.7700,N,07550.2119,W,1,12,0.92,1050.0,M,-34.3,M,,*77
$GPRMC,120050,A,4518.7700,N,07550.2119,W,23.1,279.0,100223,,,A*5E
$PFLAA,0,2148,-1047,-100,1,C043EC,340.00,14.00,26.00,0.50,1*0B
$PFLAA,0,264,-2137,150,1,C05FDB,280.00,-16.00,26.00,4.00,1*4E
$PFLAA,2,412,177,20,1,C05CBA,225.00,0.00,36.00,-1.00,1*5A
$PFLAU,3,1,2,1,2,104,2,20,449,C05CBA*47
$GPGGA,120051,4518.7744,N,07550.2285,W,1,12,0.92,1051.0,M,-34.3,M,,*71
$GPRMC,120051,A,4518.7744,N,07550.2285,W,23.1,291.0,100223,,,A*5F
$PFLAA,0,2165,-1028,-101,1,C043EC,354.00,14.00,26.00,0.50,1*09
$PFLAA,0,253,-2141,153,1,C05FDB,264.00,-16.00,26.00,4.00,1*42
$PFLAA,3,378,173,18,1,C05CBA,225.00,0.00,36.00,-1.00,1*5F
$PFLAU,3,1,2,1,3,94,2,18,416,C05CBA*7F
$GPGGA,120052,4518.7813,N,07550.2437,W,1,12,0.92,1052.0,M,-34.3,M,,*73
$GPRMC,120052,A,4518.7813,N,07550.2437,W,23.1,303.0,100223,,,A*54
$PFLAA,0,2178,-1005,-102,1,C043EC,8.00,14.00,26.00,0.50,1*03
$PFLAA,0,231,-2146,156,1,C05FDB,248.00,-16.00,26.00,4.00,1*4A
$PFLAA,3,340,167,16,1,C05CBA,225.00,0.00,36.00,-1.00,1*5F
$PFLAU,3,1,2,1,3,83,2,16,379,C05CBA*79
$GPGGA,120053,4518.7900,N,07550.2559,W,1,12,0.92,1053.0,M,-34.3,M,,*79
$GPRMC,120053,A,4518.7900,N,07550.2559,W,23.1,315.0,100223,,,A*58
$PFLAA,0,2186,-979,-103,1,C043EC,22.00,14.00,26.00,0.50,1*08
$PFLAA,0,199,-2150,159,1,C05FDB,232.00,-16.00,26.00,4.00,1*4E
$PFLAA,3,298,158,14,1,C05CBA,225.00,0.00,36.00,-1.00,1*55
$PFLAU,3,1,2,1,3,73,2,14,338,C05CBA*71
$GPGGA,120054,4518.8003,N,07550.2656,W,1,12,0.92,1054.0,M,-34.3,M,,*70
$GPRMC,120054,A,4518.8003,N,07550.2656,W,23.1,327.0,100223,,,A*57
$PFLAA,0,2187,-952,-104,1,C043EC,36.00,14.00,26.00,0.50,1*02
$PFLAA,0,159,-2152,162,1,C05FDB,216.00,-16.00,26.00,4.00,1*4E
$PFLAA,3,253,145,12,1,C05CBA,225.00,0.00,36.00,-1.00,1*58
$PFLAU,3,1,2,1,3,63,2,12,292,C05CBA*77
$GPGGA,120055,4518.8120,N,07550.2720,W,1,12,0.92,1055.0,M,-34.3,M,,*70
$GPRMC,120055,A,4518.8120,N,07550.2720,W,23.1,339.0,100223,,,A*59
$PFLAA,0,2182,-924,-105,1,C043EC,50.00,14.00,26.00,0.50,1*07
$PFLAA,0,113,-2153,165,1,C05FDB,200.00,-16.00,26.00,4.00,1*41
$PFLAA,3,206,128,10,1,C05CBA,225.00,0.00,36.00,-1.00,1*51
$PFLAU,3,1,2,1,3,53,2,10,243,C05CBA*7A
$GPGGA,120056,4518.8247,N,07550.2749,W,1,12,0.92,1056.0,M,-34.3,M,,*7D
$GPRMC,120056,A,4518.8247,N,07550.2749,W,23.1,351.0,100223,,,A*59
$PFLAA,0,2171,-897,-106,1,C043EC,64.00,14.00,26.00,0.50,1*06
$PFLAA,0,64,-2151,168,1,C05FDB,184.00,-16.00,26.00,4.00,1*70
$PFLAA,3,158,106,8,1,C05CBA,225.00,0.00,36.00,-1.00,1*6C
$PFLAU,3,1,2,1,3,43,2,8,191,C05CBA*4E
$GPGGA,120057,4518.8369,N,07550.2739,W,1,12,0.92,1057.0,M,-34.3,M,,*77
$GPRMC,120057,A,4518.8369,N,07550.2739,W,23.1,3.0,100223,,,A*56
$PFLAA,0,2153,-873,-107,1,C043EC,78.00,14.00,26.00,0.50,1*00
$PFLAA,0,16,-2147,171,1,C05FDB,168.00,-16.00,26.00,4.00,1*78
$PFLAA,3,109,79,6,1,C05CBA,225.00,0.00,36.00,-1.00,1*5F
$PFLAU,3,1,2,1,3,33,2,6,135,C05CBA*49
$GPGGA,120058,4518.8491,N,07550.2695,W,1,12,0.92,1058.0,M,-34.3,M,,*70
$GPRMC,120058,A,4518.8491,N,07550.2695,W,23.1,15.0,100223,,,A*69
$PFLAA,0,2129,-853,-108,1,C043EC,92.00,14.00,26.00,0.50,1*04
$PFLAA,0,-28,-2141,174,1,C05FDB,152.00,-16.00,26.00,4.00,1*52
$PFLAA,3,61,48,4,1,C05CBA,225.00,0.00,36.00,-1.00,1*60
$PFLAU,3,1,2,1,3,23,2,4,78,C05CBA*72
$GPGGA,120059,4518.8604,N,07550.2612,W,1,12,0.92,1059.0,M,-34.3,M,,*71
$GPRMC,120059,A,4518.8604,N,07550.2612,W,23.1,27.0,100223,,,A*68
$PFLAA,0,2102,-839,-109,1,C043EC,106.00,14.00,26.00,0.50,1*3C
$PFLAA,0,-67,-2133,177,1,C05FDB,136.00,-16.00,26.00,4.00,1*5D
$PFLAA,3,15,12,2,1,C05CBA,225.00,0.00,36.00,-1.00,1*6A
$PFLAU,3,1,2,1,3,11,2,2,20,C05CBA*78
$GPGGA,120060,4518.8701,N,07550.2500,W,1,12,0.92,1060.0,M,-34.3,M,,*75
$GPRMC,120060,A,4518.8701,N,07550.2500,W,23.1,39.0,100223,,,A*69
$PFLAA,0,2071,-831,-110,1,C043EC,120.00,14.00,26.00,0.50,1*3D
$PFLAA,0,-98,-2126,180,1,C05FDB,120.00,-16.00,26.00,4.00,1*56
$PFLAA,0,-27,-27,0,1,C05CBA,225.00,0.00,36.00,-1.00,1*6C
$PFLAU,3,1,2,1,0,186,0,0,39,C05CBA*4C
$GPGGA,120100,4518.8779,N,07550.2363,W,1,12,0.92,1061.0,M,-34.3,M,,*7F
$GPRMC,120100,A,4518.8779,N,07550.2363,W,23.1,51.0,100223,,,A*6C
$PFLAA,0,2038,-831,-111,1,C043EC,134.00,14.00,26.00,0.50,1*34
$PFLAA,0,-119,-2119,183,1,C05FDB,104.00,-16.00,26.00,4.00,1*67
$PFLAA,0,-67,-71,-2,1,C05CBA,225.00,0.00,36.00,-1.00,1*44
$PFLAU,3,1,2,1,0,175,0,-2,98,C05CBA*64
$GPGGA,120101,4518.8833,N,07550.2202,W,1,12,0.92,1062.0,M,-34.3,M,,*7A
$GPRMC,120101,A,4518.8833,N,07550.2202,W,23.1,63.0,100223,,,A*6B
$PFLAA,0,2006,-838,-112,1,C043EC,148.00,14.00,26.00,0.50,1*38
$PFLAA,0,-128,-2114,186,1,C05FDB,88.00,-16.00,26.00,4.00,1*58
$PFLAA,0,-103,-117,-4,1,C05CBA,225.00,0.00,36.00,-1.00,1*40
$PFLAU,3,1,2,1,0,166,0,-4,157,C05CBA*52
$GPGGA,120102,4518.8867,N,07550.2031,W,1,12,0.92,1063.0,M,-34.3,M,,*7B
$GPRMC,120102,A,4518.8867,N,07550.2031,W,23.1,75.0,100223,,,A*6C
$PFLAA,0,1976,-852,-113,1,C043EC,162.00,14.00,26.00,0.50,1*30
$PFLAA,0,-126,-2111,189,1,C05FDB,72.00,-16.00,26.00,4.00,1*59
$PFLAA,0,-135,-165,-6,1,C05CBA,225.00,0.00,36.00,-1.00,1*42
$PFLAU,3,1,2,1,0,156,0,-6,213,C05CBA*50
$GPGGA,120103,4518.8872,N,07550.1855,W,1,12,0.92,1064.0,M,-34.3,M,,*70
$GPRMC,120103,A,4518.8872,N,07550.1855,W,23.1,87.0,100223,,,A*6D
$PFLAA,0,1949,-873,-114,1,C043EC,176.00,14.00,26.00,0.50,1*3D
$PFLAA,0,-113,-2113,192,1,C05FDB,56.00,-16.00,26.00,4.00,1*51
$PFLAA,0,-161,-213,-8,1,C05CBA,225.00,0.00,36.00,-1.00,1*4F
$PFLAU,3,1,2,1,0,146,0,-8,268,C05CBA*53
$GPGGA,120104,4518.8853,N,07550.1680,W,1,12,0.92,1065.0,M,-34.3,M,,*73
$GPRMC,120104,A,4518.8853,N,07550.1680,W,23.1,99.0,100223,,,A*60
$PFLAA,0,1927,-901,-115,1,C043EC,190.00,14.00,26.00,0.50,1*38
$PFLAA,0,-90,-2120,195,1,C05FDB,40.00,-16.00,26.00,4.00,1*6B
$PFLAA,0,-183,-262,-10,1,C05CBA,225.00,0.00,36.00,-1.00,1*7C
$PFLAU,3,1,2,1,0,136,0,-10,320,C05CBA*60
$GPGGA,120105,4518.8809,N,07550.1514,W,1,12,0.92,1066.0,M,-34.3,M,,*70
$GPRMC,120105,A,4518.8809,N,07550.1514,W,23.1,111.0,100223,,,A*51
$PFLAA,0,1912,-933,-116,1,C043EC,204.00,14.00,26.00,0.50,1*32
$PFLAA,0,-58,-2131,198,1,C05FDB,24.00,-16.00,26.00,4.00,1*60