$GPGGA,120000,4518.8701,N,07550.2500,W,1,12,0.92,1000.0,M,-34.3,M,,*75
$GPRMC,120000,A,4518.8701,N,07550.2500,W,0.0,0.0,100223,,,A*65
$PFLAA,0,2000,-1000,-50,1,C043EC,0.00,0.00,0.00,0.00,1*32
$PFLAA,0,0,-2000,0,1,C05FDB,0.00,0.00,0.00,0.00,1*6F
$PFLAA,0,1500,1500,120,1,C05CBA,0.00,0.00,0.00,0.00,1*73
$PFLAU,3,1,2,1,0,270,0,0,2000,C05FDB*4E
$GPGGA,120001,4518.8779,N,07550.2363,W,1,12,0.92,1001.0,M,-34.3,M,,*79
$GPRMC,120001,A,4518.8779,N,07550.2363,W,23.1,51.0,100223,,,A*6C
$PFLAA,0,2010,-1011,-51,1,C043EC,334.00,-26.00,2256.00,0.50,1*19
$PFLAA,0,10,-2025,3,1,C05FDB,271.00,-89.00,2007.00,4.00,1*73
$PFLAA,0,1459,1456,118,1,C05CBA,45.00,45.00,2085.00,-1.00,1*64
$PFLAU,3,1,2,1,0,219,0,3,2025,C05FDB*45
$GPGGA,120002,4518.8833,N,07550.2202,W,1,12,0.92,1002.0,M,-34.3,M,,*7E
$GPRMC,120002,A,4518.8833,N,07550.2202,W,23.1,63.0,100223,,,A*69
$PFLAA,0,2022,-1020,-52,1,C043EC,28.00,54.00,26.00,0.50,1*08
$PFLAA,0,21,-2059,6,1,C05FDB,328.00,57.00,26.00,4.00,1*5D
$PFLAA,0,1423,1410,116,1,C05CBA,225.00,180.00,36.00,-1.00,1*63
$PFLAU,3,1,2,1,0,342,0,116,2004,C05CBA*4C
$GPGGA,120003,4518.8867,N,07550.2031,W,1,12,0.92,1003.0,M,-34.3,M,,*7D
$GPRMC,120003,A,4518.8867,N,07550.2031,W,23.1,75.0,100223,,,A*6C
$PFLAA,0,2035,-1025,-53,1,C043EC,42.00,14.00,26.00,0.50,1*02
$PFLAA,0,32,-2100,9,1,C05FDB,312.00,-16.00,26.00,4.00,1*7C
$PFLAA,0,1392,1362,114,1,C05CBA,225.00,0.00,36.00,-1.00,1*67
$PFLAU,3,1,2,1,0,329,0,114,1948,C05CBA*41
$GPGGA,120004,4518.8872,N,07550.1855,W,1,12,0.92,1004.0,M,-34.3,M,,*70
$GPRMC,120004,A,4518.8872,N,07550.1855,W,23.1,87.0,100223,,,A*6B
$PFLAA,0,2048,-1027,-54,1,C043EC,56.00,14.00,26.00,0.50,1*08
$PFLAA,0,42,-2147,12,1,C05FDB,296.00,-16.00,26.00,4.00,1*4F
$PFLAA,0,1365,1314,112,1,C05CBA,225.00,0.00,36.00,-1.00,1*68
$PFLAU,3,1,2,1,0,317,0,112,1895,C05CBA*4B
$GPGGA,120005,4518.8853,N,07550.1680,W,1,12,0.92,1005.0,M,-34.3,M,,*75
$GPRMC,120005,A,4518.8853,N,07550.1680,W,23.1,99.0,100223,,,A*60
$PFLAA,0,2061,-1025,-55,1,C043EC,70.00,14.00,26.00,0.50,1*04
$PFLAA,0,50,-2195,15,1,C05FDB,280.00,-16.00,26.00,4.00,1*43
$PFLAA,0,1344,1265,110,1,C05CBA,225.00,0.00,36.00,-1.00,1*6E
$PFLAU,3,1,2,1,0,304,0,110,1846,C05CBA*45
$GPGGA,120006,4518.8809,N,07550.1514,W,1,12,0.92,1006.0,M,-34.3,M,,*74
$GPRMC,120006,A,4518.8809,N,07550.1514,W,23.1,111.0,100223,,,A*53
$PFLAA,0,2072,-1021,-56,1,C043EC,84.00,14.00,26.00,0.50,1*0A
$PFLAA,0,56,-2242,18,1,C05FDB,264.00,-16.00,26.00,4.00,1*4B
$PFLAA,0,1326,1218,108,1,C05CBA,225.00,0.00,36.00,-1.00,1*69
$PFLAU,3,1,2,1,0,292,0,108,1802,C05CBA*42
$GPGGA,120007,4518.8740,N,07550.1367,W,1,12,0.92,1007.0,M,-34.3,M,,*74
$GPRMC,120007,A,4518.8740,N,07550.1367,W,23.1,123.0,100223,,,A*53
$PFLAA,0,2081,-1015,-57,1,C043EC,98.00,14.00,26.00,0.50,1*0D
$PFLAA,0,59,-2285,21,1,C05FDB,248.00,-16.00,26.00,4.00,1*4B
$PFLAA,0,1313,1173,106,1,C05CBA,225.00,0.00,36.00,-1.00,1*6F
$PFLAU,3,1,2,1,0,279,0,106,1762,C05CBA*40
$GPGGA,120008,4518.8652,N,07550.1240,W,1,12,0.92,1008.0,M,-34.3,M,,*72
$GPRMC,120008,A,4518.8652,N,07550.1240,W,23.1,135.0,100223,,,A*5D
$PFLAA,0,2088,-1008,-58,1,C043EC,112.00,14.00,26.00,0.50,1*34
$PFLAA,0,59,-2322,24,1,C05FDB,232.00,-16.00,26.00,4.00,1*4F
$PFLAA,0,1304,1131,104,1,C05CBA,225.00,0.00,36.00,-1.00,1*6D
$PFLAU,3,1,2,1,0,266,0,104,1727,C05CBA*4D
$GPGGA,120009,4518.8550,N,07550.1143,W,1,12,0.92,1009.0,M,-34.3,M,,*73
$GPRMC,120009,A,4518.8550,N,07550.1143,W,23.1,147.0,100223,,,A*58
$PFLAA,0,2092,-1000,-59,1,C043EC,126.00,14.00,26.00,0.50,1*31
$PFLAA,0,58,-2350,27,1,C05FDB,216.00,-16.00,26.00,4.00,1*4E
$PFLAA,0,1298,1093,102,1,C05CBA,225.00,0.00,36.00,-1.00,1*66
$PFLAU,3,1,2,1,0,253,0,102,1698,C05CBA*48
$GPGGA,120010,4518.8433,N,07550.1079,W,1,12,0.92,1010.0,M,-34.3,M,,*7F
$GPRMC,120010,A,4518.8433,N,07550.1079,W,23.1,159.0,100223,,,A*53
$PFLAA,0,2094,-992,-60,1,C043EC,140.00,14.00,26.00,0.50,1*0E
$PFLAA,0,55,-2367,30,1,C05FDB,200.00,-16.00,26.00,4.00,1*46
$PFLAA,0,1295,1060,100,1,C05CBA,225.00,0.00,36.00,-1.00,1*65
$PFLAU,3,1,2,1,0,240,0,100,1674,C05CBA*4A
$GPGGA,120011,4518.8306,N,07550.1055,W,1,12,0.92,1011.0,M,-34.3,M,,*70
$GPRMC,120011,A,4518.8306,N,07550.1055,W,23.1,171.0,100223,,,A*57
$PFLAA,0,2094,-984,-61,1,C043EC,154.00,14.00,26.00,0.50,1*0D
$PFLAA,0,53,-2372,33,1,C05FDB,184.00,-16.00,26.00,4.00,1*48
$PFLAA,0,1292,1031,98,1,C05CBA,225.00,0.00,36.00,-1.00,1*56
$PFLAU,3,1,2,1,0,228,0,98,1653,C05CBA*71
$GPGGA,120012,4518.8184,N,07550.1064,W,1,12,0.92,1012.0,M,-34.3,M,,*7A
$GPRMC,120012,A,4518.8184,N,07550.1064,W,23.1,183.0,100223,,,A*53
$PFLAA,0,2091,-977,-62,1,C043EC,168.00,14.00,26.00,0.50,1*08
$PFLAA,0,51,-2366,36,1,C05FDB,168.00,-16.00,26.00,4.00,1*48
$PFLAA,0,1290,1006,96,1,C05CBA,225.00,0.00,36.00,-1.00,1*5E
$PFLAU,3,1,2,1,0,215,0,96,1636,C05CBA*72
$GPGGA,120013,4518.8062,N,07550.1108,W,1,12,0.92,1013.0,M,-34.3,M,,*78
$GPRMC,120013,A,4518.8062,N,07550.1108,W,23.1,195.0,100223,,,A*57
$PFLAA,0,2088,-972,-63,1,C043EC,182.00,14.00,26.00,0.50,1*00
$PFLAA,0,50,-2347,39,1,C05FDB,152.00,-16.00,26.00,4.00,1*4C
$PFLAA,0,1286,987,94,1,C05CBA,225.00,0.00,36.00,-1.00,1*6A
$PFLAU,3,1,2,1,0,202,0,94,1622,C05CBA*73
$GPGGA,120014,4518.7954,N,07550.1187,W,1,12,0.92,1014.0,M,-34.3,M,,*7C
$GPRMC,120014,A,4518.7954,N,07550.1187,W,23.1,207.0,100223,,,A*5C
$PFLAA,0,2084,-969,-64,1,C043EC,196.00,14.00,26.00,0.50,1*04
$PFLAA,0,52,-2319,42,1,C05FDB,136.00,-16.00,26.00,4.00,1*4B
$PFLAA,0,1282,972,92,1,C05CBA,225.00,0.00,36.00,-1.00,1*62
$PFLAU,3,1,2,1,0,190,0,92,1609,C05CBA*74
$GPGGA,120015,4518.7852,N,07550.1299,W,1,12,0.92,1015.0,M,-34.3,M,,*77
$GPRMC,120015,A,4518.7852,N,07550.1299,W,23.1,219.0,100223,,,A*59
$PFLAA,0,2080,-967,-65,1,C043EC,210.00,14.00,26.00,0.50,1*02
$PFLAA,0,58,-2282,45,1,C05FDB,120.00,-16.00,26.00,4.00,1*42
$PFLAA,0,1274,961,90,1,C05CBA,225.00,0.00,36.00,-1.00,1*6B
$PFLAU,3,1,2,1,0,178,0,90,1597,C05CBA*74
$GPGGA,120016,4518.7778,N,07550.1440,W,1,12,0.92,1016.0,M,-34.3,M,,*72
$GPRMC,120016,A,4518.7778,N,07550.1440,W,23.1,231.0,100223,,,A*55
$PFLAA,0,2076,-967,-66,1,C043EC,224.00,14.00,26.00,0.50,1*0F
$PFLAA,0,66,-2239,48,1,C05FDB,104.00,-16.00,26.00,4.00,1*44
$PFLAA,0,1263,953,88,1,C05CBA,225.00,0.00,36.00,-1.00,1*65
$PFLAU,3,1,2,1,0,166,0,88,1583,C05CBA*77
$GPGGA,120017,4518.7720,N,07550.1592,W,1,12,0.92,1017.0,M,-34.3,M,,*71
$GPRMC,120017,A,4518.7720,N,07550.1592,W,23.1,243.0,100223,,,A*52
$PFLAA,0,2073,-968,-67,1,C043EC,238.00,14.00,26.00,0.50,1*09
$PFLAA,0,77,-2193,51,1,C05FDB,88.00,-16.00,26.00,4.00,1*7A
$PFLAA,0,1248,949,86,1,C05CBA,225.00,0.00,36.00,-1.00,1*69
$PFLAU,3,1,2,1,0,154,0,86,1569,C05CBA*7C
$GPGGA,120018,4518.7686,N,07550.1768,W,1,12,0.92,1018.0,M,-34.3,M,,*7B
$GPRMC,120018,A,4518.7686,N,07550.1768,W,23.1,255.0,100223,,,A*50
$PFLAA,0,2071,-970,-68,1,C043EC,252.00,14.00,26.00,0.50,1*01
$PFLAA,0,91,-2146,54,1,C05FDB,72.00,-16.00,26.00,4.00,1*7A
$PFLAA,0,1229,946,84,1,C05CBA,225.00,0.00,36.00,-1.00,1*63
$PFLAU,3,1,2,1,0,143,0,84,1551,C05CBA*73
$GPGGA,120019,4518.7681,N,07550.1948,W,1,12,0.92,1019.0,M,-34.3,M,,*70
$GPRMC,120019,A,4518.7681,N,07550.1948,W,23.1,267.0,100223,,,A*5B
$PFLAA,0,2070,-973,-69,1,C043EC,266.00,14.00,26.00,0.50,1*05
$PFLAA,0,107,-2102,57,1,C05FDB,56.00,-16.00,26.00,4.00,1*41
$PFLAA,0,1205,943,82,1,C05CBA,225.00,0.00,36.00,-1.00,1*6E
$PFLAU,3,1,2,1,0,131,0,82,1531,C05CBA*76
$GPGGA,120020,4518.7700,N,07550.2119,W,1,12,0.92,1020.0,M,-34.3,M,,*77
$GPRMC,120020,A,4518.7700,N,07550.2119,W,23.1,279.0,100223,,,A*59
$PFLAA,0,2071,-975,-70,1,C043EC,280.00,14.00,26.00,0.50,1*02
$PFLAA,0,123,-2062,60,1,C05FDB,40.00,-16.00,26.00,4.00,1*43
$PFLAA,0,1175,941,80,1,C05CBA,225.00,0.00,36.00,-1.00,1*6A
$PFLAU,3,1,2,1,0,120,0,80,1506,C05CBA*70
$GPGGA,120021,4518.7744,N,07550.2285,W,1,12,0.92,1021.0,M,-34.3,M,,*71
$GPRMC,120021,A,4518.7744,N,07550.2285,W,23.1,291.0,100223,,,A*58
$PFLAA,0,2073,-977,-71,1,C043EC,294.00,14.00,26.00,0.50,1*06
$PFLAA,0,138,-2030,63,1,C05FDB,24.00,-16.00,26.00,4.00,1*4F
$PFLAA,0,1142,937,78,1,C05CBA,225.00,0.00,36.00,-1.00,1*68
$PFLAU,3,1,2,1,0,108,0,78,1478,C05CBA*75
$GPGGA,120022,4518.7813,N,07550.2437,W,1,12,0.92,1022.0,M,-34.3,M,,*73
$GPRMC,120022,A,4518.7813,N,07550.2437,W,23.1,303.0,100223,,,A*53
$PFLAA,0,2076,-978,-72,1,C043EC,308.00,14.00,26.00,0.50,1*0B
$PFLAA,0,151,-2007,66,1,C05FDB,8.00,-16.00,26.00,4.00,1*7F
$PFLAA,0,1104,931,76,1,C05CBA,225.00,0.00,36.00,-1.00,1*62
$PFLAU,3,1,2,1,0,97,0,76,1444,C05CBA*43
$GPGGA,120023,4518.7900,N,07550.2559,W,1,12,0.92,1023.0,M,-34.3,M,,*79
$GPRMC,120023,A,4518.7900,N,07550.2559,W,23.1,315.0,100223,,,A*5F
$PFLAA,0,2080,-977,-73,1,C043EC,322.00,14.00,26.00,0.50,1*04
$PFLAA,0,160,-1994,69,1,C05FDB,352.00,-16.00,26.00,4.00,1*7E
$PFLAA,0,1062,922,74,1,C05CBA,225.00,0.00,36.00,-1.00,1*63
$PFLAU,3,1,2,1,0,86,0,74,1407,C05CBA*46
$GPGGA,120024,4518.8003,N,07550.2656,W,1,12,0.92,1024.0,M,-34.3,M,,*70
$GPRMC,120024,A,4518.8003,N,07550.2656,W,23.1,327.0,100223,,,A*50
$PFLAA,0,2084,-975,-74,1,C043EC,336.00,14.00,26.00,0.50,1*00
$PFLAA,0,164,-1992,72,1,C05FDB,336.00,-16.00,26.00,4.00,1*74
$PFLAA,0,1017,909,72,1,C05CBA,225.00,0.00,36.00,-1.00,1*6E
$PFLAU,3,1,2,1,0,75,0,72,1365,C05CBA*4F
$GPGGA,120025,4518.8120,N,07550.2720,W,1,12,0.92,1025.0,M,-34.3,M,,*70
$GPRMC,120025,A,4518.8120,N,07550.2720,W,23.1,339.0,100223,,,A*5E
$PFLAA,0,2088,-971,-75,1,C043EC,350.00,14.00,26.00,0.50,1*09
$PFLAA,0,162,-2001,75,1,C05FDB,320.00,-16.00,26.00,4.00,1*72
$PFLAA,0,970,892,70,1,C05CBA,225.00,0.00,36.00,-1.00,1*56
$PFLAU,3,1,2,1,0,64,0,70,1318,C05CBA*47
$GPGGA,120026,4518.8247,N,07550.2749,W,1,12,0.92,1026.0,M,-34.3,M,,*7D
$GPRMC,120026,A,4518.8247,N,07550.2749,W,23.1,351.0,100223,,,A*5E
$PFLAA,0,2091,-966,-76,1,C043EC,4.00,14.00,26.00,0.50,1*06
$PFLAA,0,154,-2018,78,1,C05FDB,304.00,-16.00,26.00,4.00,1*74
$PFLAA,0,922,870,68,1,C05CBA,225.00,0.00,36.00,-1.00,1*54
$PFLAU,3,1,2,1,0,52,0,68,1268,C05CBA*4D
$GPGGA,120027,4518.8369,N,07550.2739,W,1,12,0.92,1027.0,M,-34.3,M,,*77
$GPRMC,120027,A,4518.8369,N,07550.2739,W,23.1,3.0,100223,,,A*51
$PFLAA,0,2092,-959,-77,1,C043EC,18.00,14.00,26.00,0.50,1*35
$PFLAA,0,139,-2044,81,1,C05FDB,288.00,-16.00,26.00,4.00,1*75
$PFLAA,0,873,843,66,1,C05CBA,225.00,0.00,36.00,-1.00,1*5F
$PFLAU,3,1,2,1,0,41,0,66,1214,C05CBA*4A
$GPGGA,120028,4518.8491,N,07550.2695,W,1,12,0.92,1028.0,M,-34.3,M,,*70
$GPRMC,120028,A,4518.8491,N,07550.2695,W,23.1,15.0,100223,,,A*6E
$PFLAA,0,2092,-952,-78,1,C043EC,32.00,14.00,26.00,0.50,1*39
$PFLAA,0,117,-2076,84,1,C05FDB,272.00,-16.00,26.00,4.00,1*78
$PFLAA,0,825,812,64,1,C05CBA,225.00,0.00,36.00,-1.00,1*5A
$PFLAU,3,1,2,1,0,30,0,64,1158,C05CBA*45
$GPGGA,120029,4518.8604,N,07550.2612,W,1,12,0.92,1029.0,M,-34.3,M,,*71
$GPRMC,120029,A,4518.8604,N,07550.2612,W,23.1,27.0,100223,,,A*6F
$PFLAA,0,2089,-944,-79,1,C043EC,46.00,14.00,26.00,0.50,1*36
$PFLAA,0,90,-2111,87,1,C05FDB,256.00,-16.00,26.00,4.00,1*43
$PFLAA,0,779,776,62,1,C05CBA,225.00,0.00,36.00,-1.00,1*57
$PFLAU,3,1,2,1,0,18,0,62,1100,C05CBA*44
$GPGGA,120030,4518.8701,N,07550.2500,W,1,12,0.92,1030.0,M,-34.3,M,,*75
$GPRMC,120030,A,4518.8701,N,07550.2500,W,23.1,39.0,100223,,,A*6C
$PFLAA,0,2084,-936,-80,1,C043EC,60.00,14.00,26.00,0.50,1*3C
$PFLAA,0,59,-2148,90,1,C05FDB,240.00,-16.00,26.00,4.00,1*4B
$PFLAA,0,736,736,60,1,C05CBA,225.00,0.00,36.00,-1.00,1*5A
$PFLAU,3,1,2,1,0,6,0,60,1041,C05CBA*7D
$GPGGA,120031,4518.8779,N,07550.2363,W,1,12,0.92,1031.0,M,-34.3,M,,*79
$GPRMC,120031,A,4518.8779,N,07550.2363,W,23.1,51.0,100223,,,A*6F
$PFLAA,0,2076,-929,-81,1,C043EC,74.00,14.00,26.00,0.50,1*3B
$PFLAA,0,26,-2184,93,1,C05FDB,224.00,-16.00,26.00,4.00,1*42
$PFLAA,0,696,692,58,1,C05CBA,225.00,0.00,36.00,-1.00,1*55
$PFLAU,3,1,2,1,0,354,0,58,982,C05CBA*45
$GPGGA,120032,4518.8833,N,07550.2202,W,1,12,0.92,1032.0,M,-34.3,M,,*7E
$GPRMC,120032,A,4518.8833,N,07550.2202,W,23.1,63.0,100223,,,A*6A
$PFLAA,0,2067,-924,-82,1,C043EC,88.00,14.00,26.00,0.50,1*36
$PFLAA,0,-6,-2216,96,1,C05FDB,208.00,-16.00,26.00,4.00,1*5E
$PFLAA,0,660,646,56,1,C05CBA,225.00,0.00,36.00,-1.00,1*5B
$PFLAU,3,1,2,1,0,341,0,56,924,C05CBA*43
$GPGGA,120033,4518.8867,N,07550.2031,W,1,12,0.92,1033.0,M,-34.3,M,,*7D
$GPRMC,120033,A,4518.8867,N,07550.2031,W,23.1,75.0,100223,,,A*6F
$PFLAA,0,2055,-921,-83,1,C043EC,102.00,14.00,26.00,0.50,1*00
$PFLAA,0,-37,-2244,99,1,C05FDB,192.00,-16.00,26.00,4.00,1*64
$PFLAA,0,628,598,54,1,C05CBA,225.00,0.00,36.00,-1.00,1*55
$PFLAU,3,1,2,1,0,329,0,54,868,C05CBA*46
$GPGGA,120034,4518.8872,N,07550.1855,W,1,12,0.92,1034.0,M,-34.3,M,,*70
$GPRMC,120034,A,4518.8872,N,07550.1855,W,23.1,87.0,100223,,,A*68
$PFLAA,0,2043,-921,-84,1,C043EC,116.00,14.00,26.00,0.50,1*05
$PFLAA,0,-64,-2265,102,1,C05FDB,176.00,-16.00,26.00,4.00,1*58
$PFLAA,0,601,550,52,1,C05CBA,225.00,0.00,36.00,-1.00,1*5C
$PFLAU,3,1,2,1,0,315,0,52,815,C05CBA*45
$GPGGA,120035,4518.8853,N,07550.1680,W,1,12,0.92,1035.0,M,-34.3,M,,*75
$GPRMC,120035,A,4518.8853,N,07550.1680,W,23.1,99.0,100223,,,A*63
$PFLAA,0,2030,-925,-85,1,C043EC,130.00,14.00,26.00,0.50,1*00
$PFLAA,0,-84,-2280,105,1,C05FDB,160.00,-16.00,26.00,4.00,1*5D
$PFLAA,0,580,501,50,1,C05CBA,225.00,0.00,36.00,-1.00,1*50
$PFLAU,3,1,2,1,0,302,0,50,767,C05CBA*4B
$GPGGA,120036,4518.8809,N,07550.1514,W,1,12,0.92,1036.0,M,-34.3,M,,*74
$GPRMC,120036,A,4518.8809,N,07550.1514,W,23.1,111.0,100223,,,A*50
$PFLAA,0,2017,-931,-86,1,C043EC,144.00,14.00,26.00,0.50,1*00
$PFLAA,0,-97,-2286,108,1,C05FDB,144.00,-16.00,26.00,4.00,1*52
$PFLAA,0,562,454,48,1,C05CBA,225.00,0.00,36.00,-1.00,1*54
$PFLAU,3,1,2,1,0,288,0,48,724,C05CBA*46
$GPGGA,120037,4518.8740,N,07550.1367,W,1,12,0.92,1037.0,M,-34.3,M,,*74
$GPRMC,120037,A,4518.8740,N,07550.1367,W,23.1,123.0,100223,,,A*50
$PFLAA,0,2006,-941,-87,1,C043EC,158.00,14.00,26.00,0.50,1*0B
$PFLAA,0,-100,-2285,111,1,C05FDB,128.00,-16.00,26.00,4.00,1*6C
$PFLAA,0,550,409,46,1,C05CBA,225.00,0.00,36.00,-1.00,1*53
$PFLAU,3,1,2,1,0,274,0,46,686,C05CBA*42
$GPGGA,120038,4518.8652,N,07550.1240,W,1,12,0.92,1038.0,M,-34.3,M,,*72
$GPRMC,120038,A,4518.8652,N,07550.1240,W,23.1,135.0,100223,,,A*5E
$PFLAA,0,1997,-954,-88,1,C043EC,172.00,14.00,26.00,0.50,1*0A
$PFLAA,0,-93,-2278,114,1,C05FDB,112.00,-16.00,26.00,4.00,1*59
$PFLAA,0,541,368,44,1,C05CBA,225.00,0.00,36.00,-1.00,1*51
$PFLAU,3,1,2,1,0,259,0,44,654,C05CBA*40
$GPGGA,120039,4518.8550,N,07550.1143,W,1,12,0.92,1039.0,M,-34.3,M,,*73
$GPRMC,120039,A,4518.8550,N,07550.1143,W,23.1,147.0,100223,,,A*5B
$PFLAA,0,1991,-969,-89,1,C043EC,186.00,14.00,26.00,0.50,1*08
$PFLAA,0,-77,-2265,117,1,C05FDB,96.00,-16.00,26.00,4.00,1*61
$PFLAA,0,534,329,42,1,C05CBA,225.00,0.00,36.00,-1.00,1*50
$PFLAU,3,1,2,1,0,245,0,42,629,C05CBA*41
$GPGGA,120040,4518.8433,N,07550.1079,W,1,12,0.92,1040.0,M,-34.3,M,,*7F
$GPRMC,120040,A,4518.8433,N,07550.1079,W,23.1,159.0,100223,,,A*56
$PFLAA,0,1988,-986,-90,1,C043EC,200.00,14.00,26.00,0.50,1*04
$PFLAA,0,-51,-2248,120,1,C05FDB,80.00,-16.00,26.00,4.00,1*69
$PFLAA,0,531,296,40,1,C05CBA,225.00,0.00,36.00,-1.00,1*52
$PFLAU,3,1,2,1,0,230,0,40,608,C05CBA*42
$GPGGA,120041,4518.8306,N,07550.1055,W,1,12,0.92,1041.0,M,-34.3,M,,*70
$GPRMC,120041,A,4518.8306,N,07550.1055,W,23.1,171.0,100223,,,A*52
$PFLAA,0,1990,-1004,-91,1,C043EC,214.00,14.00,26.00,0.50,1*3B
$PFLAA,0,-16,-2228,123,1,C05FDB,64.00,-16.00,26.00,4.00,1*65
$PFLAA,1,528,267,38,1,C05CBA,225.00,0.00,36.00,-1.00,1*5A
$PFLAU,3,1,2,1,1,216,2,38,592,C05CBA*4A
$GPGGA,120042,4518.8184,N,07550.1064,W,1,12,0.92,1042.0,M,-34.3,M,,*7A
$GPRMC,120042,A,4518.8184,N,07550.1064,W,23.1,183.0,100223,,,A*56
$PFLAA,0,1996,-1022,-92,1,C043EC,228.00,14.00,26.00,0.50,1*35
$PFLAA,0,23,-2208,126,1,C05FDB,48.00,-16.00,26.00,4.00,1*47
$PFLAA,1,526,242,36,1,C05CBA,225.00,0.00,36.00,-1.00,1*5D
$PFLAU,3,1,2,1,1,202,2,36,580,C05CBA*42
$GPGGA,120043,4518.8062,N,07550.1108,W,1,12,0.92,1043.0,M,-34.3,M,,*78
$GPRMC,120043,A,4518.8062,N,07550.1108,W,23.1,195.0,100223,,,A*52
$PFLAA,0,2006,-1039,-93,1,C043EC,242.00,14.00,26.00,0.50,1*31
$PFLAA,0,67,-2188,129,1,C05FDB,32.00,-16.00,26.00,4.00,1*4E
$PFLAA,1,523,223,34,1,C05CBA,225.00,0.00,36.00,-1.00,1*5D
$PFLAU,3,1,2,1,1,188,2,34,569,C05CBA*46
$GPGGA,120044,4518.7954,N,07550.1187,W,1,12,0.92,1044.0,M,-34.3,M,,*7C
$GPRMC,120044,A,4518.7954,N,07550.1187,W,23.1,207.0,100223,,,A*59
$PFLAA,0,2021,-1053,-94,1,C043EC,256.00,14.00,26.00,0.50,1*3A
$PFLAA,0,112,-2171,132,1,C05FDB,16.00,-16.00,26.00,4.00,1*77
$PFLAA,1,518,208,32,1,C05CBA,225.00,0.00,36.00,-1.00,1*5A
$PFLAU,3,1,2,1,1,175,2,32,559,C05CBA*41
$GPGGA,120045,4518.7852,N,07550.1299,W,1,12,0.92,1045.0,M,-34.3,M,,*77
$GPRMC,120045,A,4518.7852,N,07550.1299,W,23.1,219.0,100223,,,A*5C
$PFLAA,0,2038,-1064,-95,1,C043EC,270.00,14.00,26.00,0.50,1*33
$PFLAA,0,156,-2156,135,1,C05FDB,0.00,-16.00,26.00,4.00,1*42
$PFLAA,1,510,197,30,1,C05CBA,225.00,0.00,36.00,-1.00,1*55
$PFLAU,3,1,2,1,1,162,2,30,548,C05CBA*45
$GPGGA,120046,4518.7778,N,07550.1440,W,1,12,0.92,1046.0,M,-34.3,M,,*72
$GPRMC,120046,A,4518.7778,N,07550.1440,W,23.1,231.0,100223,,,A*50
$PFLAA,0,2059,-1071,-96,1,C043EC,284.00,14.00,26.00,0.50,1*38
$PFLAA,0,195,-2145,138,1,C05FDB,344.00,-16.00,26.00,4.00,1*41
$PFLAA,1,499,190,28,1,C05CBA,225.00,0.00,36.00,-1.00,1*5B
$PFLAU,3,1,2,1,1,150,2,28,535,C05CBA*47
$GPGGA,120047,4518.7720,N,07550.1592,W,1,12,0.92,1047.0,M,-34.3,M,,*71
$GPRMC,120047,A,4518.7720,N,07550.1592,W,23.1,243.0,100223,,,A*57
$PFLAA,0,2082,-1073,-97,1,C043EC,298.00,14.00,26.00,0.50,1*30
$PFLAA,0,228,-2138,141,1,C05FDB,328.00,-16.00,26.00,4.00,1*4A
$PFLAA,2,484,185,26,1,C05CBA,225.00,0.00,36.00,-1.00,1*5E
$PFLAU,3,1,2,1,2,138,2,26,519,C05CBA*4A
$GPGGA,120048,4518.7686,N,07550.1768,W,1,12,0.92,1048.0,M,-34.3,M,,*7B
$GPRMC,120048,A,4518.7686,N,07550.1768,W,23.1,255.0,100223,,,A*55
$PFLAA,0,2105,-1070,-98,1,C043EC,312.00,14.00,26.00,0.50,1*31
$PFLAA,0,251,-2135,144,1,C05FDB,312.00,-16.00,26.00,4.00,1*45
$PFLAA,2,465,182,24,1,C05CBA,225.00,0.00,36.00,-1.00,1*54
$PFLAU,3,1,2,1,2,126,2,24,500,C05CBA*4F
$GPGGA,120049,4518.7681,N,07550.1948,W,1,12,0.92,1049.0,M,-34.3,M,,*70
$GPRMC,120049,A,4518.7681,N,07550.1948,W,23.1,267.0,100223,,,A*5E
$PFLAA,0,2128,-1061,-99,1,C043EC,326.00,14.00,26.00,0.50,1*38
$PFLAA,0,263,-2135,147,1,C05FDB,296.00,-16.00,26.00,4.00,1*4A
$PFLAA,2,441,179,22,1,C05CBA,225.00,0.00,36.00,-1.00,1*50
$PFLAU,3,1,2,1,2,115,2,22,476,C05CBA*49
$GPGGA,120050,4518.7700,N,07550.2119,W,1,12,0.92,1050.0,M,-34.3,M,,*77
$GPRMC,120050,A,4518.7700,N,07550.2119,W,23.1,279.0,100223,,,A*5E
$PFLAA,0,2148,-1047,-100,1,C043EC,340.00,14.00,26.00,0.50,1*0B
$PFLAA,0,264,-2137,150,1,C05FDB,280.00,-16.00,26.00,4.00,1*4E
$PFLAA,2,412,177,20,1,C05CBA,225.00,0.00,36.00,-1.00,1*5A
$PFLAU,3,1,2,1,2,104,2,20,449,C05CBA*47
$GPGGA,120051,4518.7744,N,07550.2285,W,1,12,0.92,1051.0,M,-34.3,M,,*71
$GPRMC,120051,A,4518.7744,N,07550.2285,W,23.1,291.0,100223,,,A*5F
$PFLAA,0,2165,-1028,-101,1,C043EC,354.00,14.00,26.00,0.50,1*09
$PFLAA,0,253,-2141,153,1,C05FDB,264.00,-16.00,26.00,4.00,1*42
$PFLAA,3,378,173,18,1,C05CBA,225.00,0.00,36.00,-1.00,1*5F
$PFLAU,3,1,2,1,3,94,2,18,416,C05CBA*7F
$GPGGA,120052,4518.7813,N,07550.2437,W,1,12,0.92,1052.0,M,-34.3,M,,*73
$GPRMC,120052,A,4518.7813,N,07550.2437,W,23.1,303.0,100223,,,A*54
$PFLAA,0,2178,-1005,-102,1,C043EC,8.00,14.00,26.00,0.50,1*03
$PFLAA,0,231,-2146,156,1,C05FDB,248.00,-16.00,26.00,4.00,1*4A
$PFLAA,3,340,167,16,1,C05CBA,225.00,0.00,36.00,-1.00,1*5F
$PFLAU,3,1,2,1,3,83,2,16,379,C05CBA*79
$GPGGA,120053,4518.7900,N,07550.2559,W,1,12,0.92,1053.0,M,-34.3,M,,*79
$GPRMC,120053,A,4518.7900,N,07550.2559,W,23.1,315.0,100223,,,A*58
$PFLAA,0,2186,-979,-103,1,C043EC,22.00,14.00,26.00,0.50,1*08
$PFLAA,0,199,-2150,159,1,C05FDB,232.00,-16.00,26.00,4.00,1*4E
$PFLAA,3,298,158,14,1,C05CBA,225.00,0.00,36.00,-1.00,1*55
$PFLAU,3,1,2,1,3,73,2,14,338,C05CBA*71
$GPGGA,120054,4518.8003,N,07550.2656,W,1,12,0.92,1054.0,M,-34.3,M,,*70
$GPRMC,120054,A,4518.8003,N,07550.2656,W,23.1,327.0,100223,,,A*57
$PFLAA,0,2187,-952,-104,1,C043EC,36.00,14.00,26.00,0.50,1*02
$PFLAA,0,159,-2152,162,1,C05FDB,216.00,-16.00,26.00,4.00,1*4E
$PFLAA,3,253,145,12,1,C05CBA,225.00,0.00,36.00,-1.00,1*58
$PFLAU,3,1,2,1,3,63,2,12,292,C05CBA*77
$GPGGA,120055,4518.8120,N,07550.2720,W,1,12,0.92,1055.0,M,-34.3,M,,*70
$GPRMC,120055,A,4518.8120,N,07550.2720,W,23.1,339.0,100223,,,A*59
$PFLAA,0,2182,-924,-105,1,C043EC,50.00,14.00,26.00,0.50,1*07
$PFLAA,0,113,-2153,165,1,C05FDB,200.00,-16.00,26.00,4.00,1*41
$PFLAA,3,206,128,10,1,C05CBA,225.00,0.00,36.00,-1.00,1*51
$PFLAU,3,1,2,1,3,53,2,10,243,C05CBA*7A
$GPGGA,120056,4518.8247,N,07550.2749,W,1,12,0.92,1056.0,M,-34.3,M,,*7D
$GPRMC,120056,A,4518.8247,N,07550.2749,W,23.1,351.0,100223,,,A*59
$PFLAA,0,2171,-897,-106,1,C043EC,64.00,14.00,26.00,0.50,1*06
$PFLAA,0,64,-2151,168,1,C05FDB,184.00,-16.00,26.00,4.00,1*70
$PFLAA,3,158,106,8,1,C05CBA,225.00,0.00,36.00,-1.00,1*6C
$PFLAU,3,1,2,1,3,43,2,8,191,C05CBA*4E
$GPGGA,120057,4518.8369,N,07550.2739,W,1,12,0.92,1057.0,M,-34.3,M,,*77
$GPRMC,120057,A,4518.8369,N,07550.2739,W,23.1,3.0,100223,,,A*56
$PFLAA,0,2153,-873,-107,1,C043EC,78.00,14.00,26.00,0.50,1*00
$PFLAA,0,16,-2147,171,1,C05FDB,168.00,-16.00,26.00,4.00,1*78
$PFLAA,3,109,79,6,1,C05CBA,225.00,0.00,36.00,-1.00,1*5F
$PFLAU,3,1,2,1,3,33,2,6,135,C05CBA*49
$GPGGA,120058,4518.8491,N,07550.2695,W,1,12,0.92,1058.0,M,-34.3,M,,*70
$GPRMC,120058,A,4518.8491,N,07550.2695,W,23.1,15.0,100223,,,A*69
$PFLAA,0,2129,-853,-108,1,C043EC,92.00,14.00,26.00,0.50,1*04
$PFLAA,0,-28,-2141,174,1,C05FDB,152.00,-16.00,26.00,4.00,1*52
$PFLAA,3,61,48,4,1,C05CBA,225.00,0.00,36.00,-1.00,1*60
$PFLAU,3,1,2,1,3,23,2,4,78,C05CBA*72
$GPGGA,120059,4518.8604,N,07550.2612,W,1,12,0.92,1059.0,M,-34.3,M,,*71
$GPRMC,120059,A,4518.8604,N,07550.2612,W,23.1,27.0,100223,,,A*68
$PFLAA,0,2102,-839,-109,1,C043EC,106.00,14.00,26.00,0.50,1*3C
$PFLAA,0,-67,-2133,177,1,C05FDB,136.00,-16.00,26.00,4.00,1*5D
$PFLAA,3,15,12,2,1,C05CBA,225.00,0.00,36.00,-1.00,1*6A
$PFLAU,3,1,2,1,3,11,2,2,20,C05CBA*78
$GPGGA,120060,4518.8701,N,07550.2500,W,1,12,0.92,1060.0,M,-34.3,M,,*75
$GPRMC,120060,A,4518.8701,N,07550.2500,W,23.1,39.0,100223,,,A*69
$PFLAA,0,2071,-831,-110,1,C043EC,120.00,14.00,26.00,0.50,1*3D
$PFLAA,0,-98,-2126,180,1,C05FDB,120.00,-16.00,26.00,4.00,1*56
$PFLAA,0,-27,-27,0,1,C05CBA,225.00,0.00,36.00,-1.00,1*6C
$PFLAU,3,1,2,1,0,186,0,0,39,C05CBA*4C
$GPGGA,120100,4518.8779,N,07550.2363,W,1,12,0.92,1061.0,M,-34.3,M,,*7F
$GPRMC,120100,A,4518.8779,N,07550.2363,W,23.1,51.0,100223,,,A*6C
$PFLAA,0,2038,-831,-111,1,C043EC,134.00,14.00,26.00,0.50,1*34
$PFLAA,0,-119,-2119,183,1,C05FDB,104.00,-16.00,26.00,4.00,1*67
$PFLAA,0,-67,-71,-2,1,C05CBA,225.00,0.00,36.00,-1.00,1*44
$PFLAU,3,1,2,1,0,175,0,-2,98,C05CBA*64
$GPGGA,120101,4518.8833,N,07550.2202,W,1,12,0.92,1062.0,M,-34.3,M,,*7A
$GPRMC,120101,A,4518.8833,N,07550.2202,W,23.1,63.0,100223,,,A*6B
$PFLAA,0,2006,-838,-112,1,C043EC,148.00,14.00,26.00,0.50,1*38
$PFLAA,0,-128,-2114,186,1,C05FDB,88.00,-16.00,26.00,4.00,1*58
$PFLAA,0,-103,-117,-4,1,C05CBA,225.00,0.00,36.00,-1.00,1*40
$PFLAU,3,1,2,1,0,166,0,-4,157,C05CBA*52
$GPGGA,120102,4518.8867,N,07550.2031,W,1,12,0.92,1063.0,M,-34.3,M,,*7B
$GPRMC,120102,A,4518.8867,N,07550.2031,W,23.1,75.0,100223,,,A*6C
$PFLAA,0,1976,-852,-113,1,C043EC,162.00,14.00,26.00,0.50,1*30
$PFLAA,0,-126,-2111,189,1,C05FDB,72.00,-16.00,26.00,4.00,1*59
$PFLAA,0,-135,-165,-6,1,C05CBA,225.00,0.00,36.00,-1.00,1*42
$PFLAU,3,1,2,1,0,156,0,-6,213,C05CBA*50
$GPGGA,120103,4518.8872,N,07550.1855,W,1,12,0.92,1064.0,M,-34.3,M,,*70
$GPRMC,120103,A,4518.8872,N,07550.1855,W,23.1,87.0,100223,,,A*6D
$PFLAA,0,1949,-873,-114,1,C043EC,176.00,14.00,26.00,0.50,1*3D
$PFLAA,0,-113,-2113,192,1,C05FDB,56.00,-16.00,26.00,4.00,1*51
$PFLAA,0,-161,-213,-8,1,C05CBA,225.00,0.00,36.00,-1.00,1*4F
$PFLAU,3,1,2,1,0,146,0,-8,268,C05CBA*53
$GPGGA,120104,4518.8853,N,07550.1680,W,1,12,0.92,1065.0,M,-34.3,M,,*73
$GPRMC,120104,A,4518.8853,N,07550.1680,W,23.1,99.0,100223,,,A*60
$PFLAA,0,1927,-901,-115,1,C043EC,190.00,14.00,26.00,0.50,1*38
$PFLAA,0,-90,-2120,195,1,C05FDB,40.00,-16.00,26.00,4.00,1*6B
$PFLAA,0,-183,-262,-10,1,C05CBA,225.00,0.00,36.00,-1.00,1*7C
$PFLAU,3,1,2,1,0,136,0,-10,320,C05CBA*60
$GPGGA,120105,4518.8809,N,07550.1514,W,1,12,0.92,1066.0,M,-34.3,M,,*70
$GPRMC,120105,A,4518.8809,N,07550.1514,W,23.1,111.0,100223,,,A*51
$PFLAA,0,1912,-933,-116,1,C043EC,204.00,14.00,26.00,0.50,1*32
$PFLAA,0,-58,-2131,198,1,C05FDB,24.00,-16.00,26.00,4.00,1*60
$PFLAA,0,-200,-309,-12,1,C05CBA,225.00,0.00,36.00,-1.00,1*7A
$PFLAU,3,1,2,1,0,126,0,-12,369,C05CBA*6E
$GPGGA,120106,4518.8740,N,07550.1367,W,1,12,0.92,1067.0,M,-34.3,M,,*72
$GPRMC,120106,A,4518.8740,N,07550.1367,W,23.1,123.0,100223,,,A*53
$PFLAA,0,1904,-968,-117,1,C043EC,218.00,14.00,26.00,0.50,1*37
$PFLAA,0,-20,-2147,201,1,C05FDB,8.00,-16.00,26.00,4.00,1*53
$PFLAA,0,-213,-354,-14,1,C05CBA,225.00,0.00,36.00,-1.00,1*76
$PFLAU,3,1,2,1,0,116,0,-14,414,C05CBA*66
$GPGGA,120107,4518.8652,N,07550.1240,W,1,12,0.92,1068.0,M,-34.3,M,,*7A
$GPRMC,120107,A,4518.8652,N,07550.1240,W,23.1,135.0,100223,,,A*53
$PFLAA,0,1905,-1005,-118,1,C043EC,232.00,14.00,26.00,0.50,1*02
$PFLAA,0,21,-2167,204,1,C05FDB,352.00,-16.00,26.00,4.00,1*74
$PFLAA,0,-222,-395,-16,1,C05CBA,225.00,0.00,36.00,-1.00,1*7B
$PFLAU,3,1,2,1,0,106,0,-16,454,C05CBA*61
$GPGGA,120108,4518.8550,N,07550.1143,W,1,12,0.92,1069.0,M,-34.3,M,,*75
$GPRMC,120108,A,4518.8550,N,07550.1143,W,23.1,147.0,100223,,,A*58
$PFLAA,0,1914,-1041,-119,1,C043EC,246.00,14.00,26.00,0.50,1*00
$PFLAA,0,64,-2190,207,1,C05FDB,336.00,-16.00,26.00,4.00,1*7C
$PFLAA,0,-228,-433,-18,1,C05CBA,225.00,0.00,36.00,-1.00,1*74
$PFLAU,3,1,2,1,0,95,0,-18,491,C05CBA*5D
$GPGGA,120109,4518.8433,N,07550.1079,W,1,12,0.92,1070.0,M,-34.3,M,,*70
$GPRMC,120109,A,4518.8433,N,07550.1079,W,23.1,159.0,100223,,,A*5A
$PFLAA,0,1931,-1074,-120,1,C043EC,260.00,14.00,26.00,0.50,1*0F
$PFLAA,0,105,-2214,210,1,C05FDB,320.00,-16.00,26.00,4.00,1*44
$PFLAA,0,-232,-467,-20,1,C05CBA,225.00,0.00,36.00,-1.00,1*75
$PFLAU,3,1,2,1,0,85,0,-20,522,C05CBA*5E
$GPGGA,120110,4518.8306,N,07550.1055,W,1,12,0.92,1071.0,M,-34.3,M,,*76
$GPRMC,120110,A,4518.8306,N,07550.1055,W,23.1,171.0,100223,,,A*57
$PFLAA,0,1956,-1104,-121,1,C043EC,274.00,14.00,26.00,0.50,1*0C
$PFLAA,0,142,-2239,213,1,C05FDB,304.00,-16.00,26.00,4.00,1*4D
$PFLAA,0,-235,-496,-22,1,C05CBA,225.00,0.00,36.00,-1.00,1*7E
$PFLAU,3,1,2,1,0,74,0,-22,550,C05CBA*57
$GPGGA,120111,4518.8184,N,07550.1064,W,1,12,0.92,1072.0,M,-34.3,M,,*7E
$GPRMC,120111,A,4518.8184,N,07550.1064,W,23.1,183.0,100223,,,A*51
$PFLAA,0,1987,-1127,-122,1,C043EC,288.00,14.00,26.00,0.50,1*01
$PFLAA,0,173,-2263,216,1,C05FDB,288.00,-16.00,26.00,4.00,1*40
$PFLAA,0,-237,-521,-24,1,C05CBA,225.00,0.00,36.00,-1.00,1*77
$PFLAU,3,1,2,1,0,62,0,-24,573,C05CBA*57
$GPGGA,120112,4518.8062,N,07550.1108,W,1,12,0.92,1073.0,M,-34.3,M,,*7E
$GPRMC,120112,A,4518.8062,N,07550.1108,W,23.1,195.0,100223,,,A*57
$PFLAA,0,2023,-1143,-123,1,C043EC,302.00,14.00,26.00,0.50,1*05
$PFLAA,0,197,-2282,219,1,C05FDB,272.00,-16.00,26.00,4.00,1*4F
$PFLAA,0,-240,-540,-26,1,C05CBA,225.00,0.00,36.00,-1.00,1*72
$PFLAU,3,1,2,1,0,51,0,-26,592,C05CBA*5A
$GPGGA,120113,4518.7954,N,07550.1187,W,1,12,0.92,1074.0,M,-34.3,M,,*7C
$GPRMC,120113,A,4518.7954,N,07550.1187,W,23.1,207.0,100223,,,A*5A
$PFLAA,0,2062,-1150,-124,1,C043EC,316.00,14.00,26.00,0.50,1*00
$PFLAA,0,211,-2297,222,1,C05FDB,256.00,-16.00,26.00,4.00,1*48
$PFLAA,0,-245,-555,-28,1,C05CBA,225.00,0.00,36.00,-1.00,1*7D
$PFLAU,3,1,2,1,0,39,0,-28,607,C05CBA*55
$GPGGA,120114,4518.7852,N,07550.1299,W,1,12,0.92,1075.0,M,-34.3,M,,*71
$GPRMC,120114,A,4518.7852,N,07550.1299,W,23.1,219.0,100223,,,A*59
$PFLAA,0,2102,-1148,-125,1,C043EC,330.00,14.00,26.00,0.50,1*0B
$PFLAA,0,216,-2305,225,1,C05FDB,240.00,-16.00,26.00,4.00,1*45
$PFLAA,0,-253,-566,-30,1,C05CBA,225.00,0.00,36.00,-1.00,1*73
$PFLAU,3,1,2,1,0,27,0,-30,620,C05CBA*56
$GPGGA,120115,4518.7778,N,07550.1440,W,1,12,0.92,1076.0,M,-34.3,M,,*76
$GPRMC,120115,A,4518.7778,N,07550.1440,W,23.1,231.0,100223,,,A*57
$PFLAA,0,2141,-1138,-126,1,C043EC,344.00,14.00,26.00,0.50,1*0B
$PFLAA,0,212,-2304,228,1,C05FDB,224.00,-16.00,26.00,4.00,1*4F
$PFLAA,0,-264,-573,-32,1,C05CBA,225.00,0.00,36.00,-1.00,1*71
$PFLAU,3,1,2,1,0,14,0,-32,632,C05CBA*57
$GPGGA,120116,4518.7720,N,07550.1592,W,1,12,0.92,1077.0,M,-34.3,M,,*77
$GPRMC,120116,A,4518.7720,N,07550.1592,W,23.1,243.0,100223,,,A*52
$PFLAA,0,2178,-1118,-127,1,C043EC,358.00,14.00,26.00,0.50,1*0F
$PFLAA,0,200,-2296,231,1,C05FDB,208.00,-16.00,26.00,4.00,1*40
$PFLAA,0,-279,-578,-34,1,C05CBA,225.00,0.00,36.00,-1.00,1*70
$PFLAU,3,1,2,1,0,1,0,-34,642,C05CBA*62
$GPGGA,120117,4518.7686,N,07550.1768,W,1,12,0.92,1078.0,M,-34.3,M,,*73
$GPRMC,120117,A,4518.7686,N,07550.1768,W,23.1,255.0,100223,,,A*5E
$PFLAA,0,2209,-1090,-128,1,C043EC,12.00,14.00,26.00,0.50,1*39
$PFLAA,0,181,-2279,234,1,C05FDB,192.00,-16.00,26.00,4.00,1*4E
$PFLAA,0,-298,-581,-36,1,C05CBA,225.00,0.00,36.00,-1.00,1*7B
$PFLAU,3,1,2,1,0,348,0,-36,654,C05CBA*69
$GPGGA,120118,4518.7681,N,07550.1948,W,1,12,0.92,1079.0,M,-34.3,M,,*76
$GPRMC,120118,A,4518.7681,N,07550.1948,W,23.1,267.0,100223,,,A*5B
$PFLAA,0,2233,-1056,-129,1,C043EC,26.00,14.00,26.00,0.50,1*3C
$PFLAA,0,156,-2254,237,1,C05FDB,176.00,-16.00,26.00,4.00,1*42
$PFLAA,0,-322,-584,-38,1,C05CBA,225.00,0.00,36.00,-1.00,1*70
$PFLAU,3,1,2,1,0,334,0,-38,667,C05CBA*6C
$GPGGA,120119,4518.7700,N,07550.2119,W,1,12,0.92,1080.0,M,-34.3,M,,*76
$GPRMC,120119,A,4518.7700,N,07550.2119,W,23.1,279.0,100223,,,A*52
$PFLAA,0,2249,-1016,-130,1,C043EC,40.00,14.00,26.00,0.50,1*3D
$PFLAA,0,129,-2222,240,1,C05FDB,160.00,-16.00,26.00,4.00,1*4C
$PFLAA,0,-351,-586,-40,1,C05CBA,225.00,0.00,36.00,-1.00,1*79
$PFLAU,3,1,2,1,0,320,0,-40,684,C05CBA*6B
$GPGGA,120120,4518.7744,N,07550.2285,W,1,12,0.92,1081.0,M,-34.3,M,,*7B
$GPRMC,120120,A,4518.7744,N,07550.2285,W,23.1,291.0,100223,,,A*58
$PFLAA,0,2256,-974,-131,1,C043EC,54.00,14.00,26.00,0.50,1*0B
$PFLAA,0,99,-2186,243,1,C05FDB,144.00,-16.00,26.00,4.00,1*7E
$PFLAA,0,-385,-590,-42,1,C05CBA,225.00,0.00,36.00,-1.00,1*75
$PFLAU,3,1,2,1,0,306,0,-42,705,C05CBA*65
$GPGGA,120121,4518.7813,N,07550.2437,W,1,12,0.92,1082.0,M,-34.3,M,,*7B
$GPRMC,120121,A,4518.7813,N,07550.2437,W,23.1,303.0,100223,,,A*51
$PFLAA,0,2253,-931,-132,1,C043EC,68.00,14.00,26.00,0.50,1*03
$PFLAA,0,71,-2146,246,1,C05FDB,128.00,-16.00,26.00,4.00,1*7B
$PFLAA,0,-423,-596,-44,1,C05CBA,225.00,0.00,36.00,-1.00,1*7E
$PFLAU,3,1,2,1,0,292,0,-44,732,C05CBA*6B
$GPGGA,120122,4518.7900,N,07550.2559,W,1,12,0.92,1083.0,M,-34.3,M,,*73
$GPRMC,120122,A,4518.7900,N,07550.2559,W,23.1,315.0,100223,,,A*5F
$PFLAA,0,2240,-889,-133,1,C043EC,82.00,14.00,26.00,0.50,1*06
$PFLAA,0,45,-2106,249,1,C05FDB,112.00,-16.00,26.00,4.00,1*7E
$PFLAA,0,-465,-605,-46,1,C05CBA,225.00,0.00,36.00,-1.00,1*77
$PFLAU,3,1,2,1,0,277,0,-46,764,C05CBA*61
$GPGGA,120123,4518.8003,N,07550.2656,W,1,12,0.92,1084.0,M,-34.3,M,,*7C
$GPRMC,120123,A,4518.8003,N,07550.2656,W,23.1,327.0,100223,,,A*56
$PFLAA,0,2218,-851,-134,1,C043EC,96.00,14.00,26.00,0.50,1*0C
$PFLAA,0,23,-2067,252,1,C05FDB,96.00,-16.00,26.00,4.00,1*4F
$PFLAA,0,-510,-618,-48,1,C05CBA,225.00,0.00,36.00,-1.00,1*76
$PFLAU,3,1,2,1,0,263,0,-48,802,C05CBA*65
$GPGGA,120124,4518.8120,N,07550.2720,W,1,12,0.92,1085.0,M,-34.3,M,,*7A
$GPRMC,120124,A,4518.8120,N,07550.2720,W,23.1,339.0,100223,,,A*5E
$PFLAA,0,2188,-818,-135,1,C043EC,110.00,14.00,26.00,0.50,1*35
$PFLAA,0,6,-2034,255,1,C05FDB,80.00,-16.00,26.00,4.00,1*7E
$PFLAA,0,-557,-635,-50,1,C05CBA,225.00,0.00,36.00,-1.00,1*73
$PFLAU,3,1,2,1,0,250,0,-50,846,C05CBA*6C
$GPGGA,120125,4518.8247,N,07550.2749,W,1,12,0.92,1086.0,M,-34.3,M,,*75
$GPRMC,120125,A,4518.8247,N,07550.2749,W,23.1,351.0,100223,,,A*5C
$PFLAA,0,2150,-793,-136,1,C043EC,124.00,14.00,26.00,0.50,1*38
$PFLAA,0,-5,-2007,258,1,C05FDB,64.00,-16.00,26.00,4.00,1*57
$PFLAA,0,-605,-657,-52,1,C05CBA,225.00,0.00,36.00,-1.00,1*71
$PFLAU,3,1,2,1,0,236,0,-52,894,C05CBA*61
$GPGGA,120126,4518.8369,N,07550.2739,W,1,12,0.92,1087.0,M,-34.3,M,,*7D
$GPRMC,120126,A,4518.8369,N,07550.2739,W,23.1,3.0,100223,,,A*51
$PFLAA,0,2108,-777,-137,1,C043EC,138.00,14.00,26.00,0.50,1*33
$PFLAA,0,-11,-1989,261,1,C05FDB,48.00,-16.00,26.00,4.00,1*6A
$PFLAA,0,-654,-684,-54,1,C05CBA,225.00,0.00,36.00,-1.00,1*7D
$PFLAU,3,1,2,1,0,223,0,-54,947,C05CBA*6C
$GPGGA,120127,4518.8491,N,07550.2695,W,1,12,0.92,1088.0,M,-34.3,M,,*74
$GPRMC,120127,A,4518.8491,N,07550.2695,W,23.1,15.0,100223,,,A*60
$PFLAA,0,2063,-771,-138,1,C043EC,152.00,14.00,26.00,0.50,1*3A
$PFLAA,0,-11,-1982,264,1,C05FDB,32.00,-16.00,26.00,4.00,1*69
$PFLAA,0,-702,-715,-56,1,C05CBA,225.00,0.00,36.00,-1.00,1*74
$PFLAU,3,1,2,1,0,211,0,-56,1003,C05CBA*57
$GPGGA,120128,4518.8604,N,07550.2612,W,1,12,0.92,1089.0,M,-34.3,M,,*7B
$GPRMC,120128,A,4518.8604,N,07550.2612,W,23.1,27.0,100223,,,A*6F
$PFLAA,0,2017,-775,-139,1,C043EC,166.00,14.00,26.00,0.50,1*3B
$PFLAA,0,-7,-1985,267,1,C05FDB,16.00,-16.00,26.00,4.00,1*5C
$PFLAA,0,-748,-751,-58,1,C05CBA,225.00,0.00,36.00,-1.00,1*74
$PFLAU,3,1,2,1,0,198,0,-58,1061,C05CBA*5F
$GPGGA,120129,4518.8701,N,07550.2500,W,1,12,0.92,1090.0,M,-34.3,M,,*76
$GPRMC,120129,A,4518.8701,N,07550.2500,W,23.1,39.0,100223,,,A*65
$PFLAA,0,1974,-790,-140,1,C043EC,180.00,14.00,26.00,0.50,1*39
$PFLAA,0,0,-2000,270,1,C05FDB,0.00,-16.00,26.00,4.00,1*40
$PFLAA,0,-791,-791,-60,1,C05CBA,225.00,0.00,36.00,-1.00,1*77
$PFLAU,3,1,2,1,0,186,0,-60,1120,C05CBA*5F
$GPGGA,120130,4518.8779,N,07550.2363,W,1,12,0.92,1091.0,M,-34.3,M,,*73
$GPRMC,120130,A,4518.8779,N,07550.2363,W,23.1,51.0,100223,,,A*6F
$PFLAA,0,1934,-814,-141,1,C043EC,194.00,14.00,26.00,0.50,1*3A
$PFLAA,0,10,-2025,273,1,C05FDB,344.00,-16.00,26.00,4.00,1*76
$PFLAA,0,-831,-835,-62,1,C05CBA,225.00,0.00,36.00,-1.00,1*71
$PFLAU,3,1,2,1,0,174,0,-62,1179,C05CBA*5C
$GPGGA,120131,4518.8833,N,07550.2202,W,1,12,0.92,1092.0,M,-34.3,M,,*76
$GPRMC,120131,A,4518.8833,N,07550.2202,W,23.1,63.0,100223,,,A*68
$PFLAA,0,1901,-847,-142,1,C043EC,208.00,14.00,26.00,0.50,1*3F
$PFLAA,0,21,-2059,276,1,C05FDB,328.00,-16.00,26.00,4.00,1*70
$PFLAA,0,-867,-881,-64,1,C05CBA,225.00,0.00,36.00,-1.00,1*7B
$PFLAU,3,1,2,1,0,162,0,-64,1237,C05CBA*54
$GPGGA,120132,4518.8867,N,07550.2031,W,1,12,0.92,1093.0,M,-34.3,M,,*77
$GPRMC,120132,A,4518.8867,N,07550.2031,W,23.1,75.0,100223,,,A*6F
$PFLAA,0,1876,-886,-143,1,C043EC,222.00,14.00,26.00,0.50,1*3A
$PFLAA,0,32,-2100,279,1,C05FDB,312.00,-16.00,26.00,4.00,1*79
$PFLAA,0,-899,-929,-66,1,C05CBA,225.00,0.00,36.00,-1.00,1*7B
$PFLAU,3,1,2,1,0,151,0,-66,1293,C05CBA*58
$GPGGA,120133,4518.8872,N,07550.1855,W,1,12,0.92,1094.0,M,-34.3,M,,*7C
$GPRMC,120133,A,4518.8872,N,07550.1855,W,23.1,87.0,100223,,,A*6E
$PFLAA,0,1860,-931,-144,1,C043EC,236.00,14.00,26.00,0.50,1*32
$PFLAA,0,42,-2147,282,1,C05FDB,296.00,-16.00,26.00,4.00,1*74
$PFLAA,0,-925,-977,-68,1,C05CBA,225.00,0.00,36.00,-1.00,1*78
$PFLAU,3,1,2,1,0,140,0,-68,1346,C05CBA*5F
$GPGGA,120134,4518.8853,N,07550.1680,W,1,12,0.92,1095.0,M,-34.3,M,,*7F
$GPRMC,120134,A,4518.8853,N,07550.1680,W,23.1,99.0,100223,,,A*63
$PFLAA,0,1855,-978,-145,1,C043EC,250.00,14.00,26.00,0.50,1*38
$PFLAA,0,50,-2195,285,1,C05FDB,280.00,-16.00,26.00,4.00,1*78
$PFLAA,0,-947,-1025,-70,1,C05CBA,225.00,0.00,36.00,-1.00,1*4A
$PFLAU,3,1,2,1,0,128,0,-70,1397,C05CBA*54
$GPGGA,120135,4518.8809,N,07550.1514,W,1,12,0.92,1096.0,M,-34.3,M,,*7C
$GPRMC,120135,A,4518.8809,N,07550.1514,W,23.1,111.0,100223,,,A*52
$PFLAA,0,1861,-1025,-146,1,C043EC,264.00,14.00,26.00,0.50,1*0B
$PFLAA,0,56,-2242,288,1,C05FDB,264.00,-16.00,26.00,4.00,1*70
$PFLAA,0,-964,-1073,-72,1,C05CBA,225.00,0.00,36.00,-1.00,1*4A
$PFLAU,3,1,2,1,0,117,0,-72,1443,C05CBA*54
$GPGGA,120136,4518.8740,N,07550.1367,W,1,12,0.92,1097.0,M,-34.3,M,,*7E
$GPRMC,120136,A,4518.8740,N,07550.1367,W,23.1,123.0,100223,,,A*50
$PFLAA,0,1877,-1070,-147,1,C043EC,278.00,14.00,26.00,0.50,1*00
$PFLAA,0,59,-2285,291,1,C05FDB,248.00,-16.00,26.00,4.00,1*72
$PFLAA,0,-977,-1117,-74,1,C05CBA,225.00,0.00,36.00,-1.00,1*4D
$PFLAU,3,1,2,1,0,106,0,-74,1485,C05CBA*58
$GPGGA,120137,4518.8652,N,07550.1240,W,1,12,0.92,1098.0,M,-34.3,M,,*76
$GPRMC,120137,A,4518.8652,N,07550.1240,W,23.1,135.0,100223,,,A*50
$PFLAA,0,1903,-1110,-148,1,C043EC,292.00,14.00,26.00,0.50,1*0E
$PFLAA,0,59,-2322,294,1,C05FDB,232.00,-16.00,26.00,4.00,1*76
$PFLAA,0,-986,-1159,-76,1,C05CBA,225.00,0.00,36.00,-1.00,1*4B
$PFLAU,3,1,2,1,0,95,0,-76,1523,C05CBA*6C
$GPGGA,120138,4518.8550,N,07550.1143,W,1,12,0.92,1099.0,M,-34.3,M,,*79
$GPRMC,120138,A,4518.8550,N,07550.1143,W,23.1,147.0,100223,,,A*5B
$PFLAA,0,1937,-1144,-149,1,C043EC,306.00,14.00,26.00,0.50,1*05
$PFLAA,0,58,-2350,297,1,C05FDB,216.00,-16.00,26.00,4.00,1*77
$PFLAA,0,-992,-1197,-78,1,C05CBA,225.00,0.00,36.00,-1.00,1*42
$PFLAU,3,1,2,1,0,83,0,-78,1556,C05CBA*67
$GPGGA,120139,4518.8433,N,07550.1079,W,1,12,0.92,1100.0,M,-34.3,M,,*75
$GPRMC,120139,A,4518.8433,N,07550.1079,W,23.1,159.0,100223,,,A*59
$PFLAA,0,1979,-1169,-150,1,C043EC,320.00,14.00,26.00,0.50,1*0C
$PFLAA,0,55,-2367,300,1,C05FDB,200.00,-16.00,26.00,4.00,1*76
$PFLAA,0,-996,-1231,-80,1,C05CBA,225.00,0.00,36.00,-1.00,1*4E
$PFLAU,3,1,2,1,0,72,0,-80,1584,C05CBA*61
$GPGGA,120140,4518.8306,N,07550.1055,W,1,12,0.92,1101.0,M,-34.3,M,,*75
$GPRMC,120140,A,4518.8306,N,07550.1055,W,23.1,171.0,100223,,,A*52
$PFLAA,0,2025,-1183,-151,1,C043EC,334.00,14.00,26.00,0.50,1*0F
$PFLAA,0,53,-2372,303,1,C05FDB,184.00,-16.00,26.00,4.00,1*78
$PFLAA,0,-999,-1260,-82,1,C05CBA,225.00,0.00,36.00,-1.00,1*47
$PFLAU,3,1,2,1,0,61,0,-82,1609,C05CBA*67
$GPGGA,120141,4518.8184,N,07550.1064,W,1,12,0.92,1102.0,M,-34.3,M,,*7D
$GPRMC,120141,A,4518.8184,N,07550.1064,W,23.1,183.0,100223,,,A*54
$PFLAA,0,2073,-1188,-152,1,C043EC,348.00,14.00,26.00,0.50,1*0F
$PFLAA,0,51,-2366,306,1,C05FDB,168.00,-16.00,26.00,4.00,1*78
$PFLAA,0,-1001,-1284,-84,1,C05CBA,225.00,0.00,36.00,-1.00,1*72
$PFLAU,3,1,2,1,0,49,0,-84,1629,C05CBA*69
$GPGGA,120142,4518.8062,N,07550.1108,W,1,12,0.92,1103.0,M,-34.3,M,,*7D
$GPRMC,120142,A,4518.8062,N,07550.1108,W,23.1,195.0,100223,,,A*52
$PFLAA,0,2121,-1181,-153,1,C043EC,2.00,14.00,26.00,0.50,1*0C
$PFLAA,0,50,-2347,309,1,C05FDB,152.00,-16.00,26.00,4.00,1*7C
$PFLAA,0,-1004,-1304,-86,1,C05CBA,225.00,0.00,36.00,-1.00,1*7C
$PFLAU,3,1,2,1,0,37,0,-86,1647,C05CBA*6A
$GPGGA,120143,4518.7954,N,07550.1187,W,1,12,0.92,1104.0,M,-34.3,M,,*7F
$GPRMC,120143,A,4518.7954,N,07550.1187,W,23.1,207.0,100223,,,A*5F
$PFLAA,0,2166,-1163,-154,1,C043EC,16.00,14.00,26.00,0.50,1*31
$PFLAA,0,52,-2319,312,1,C05FDB,136.00,-16.00,26.00,4.00,1*7D
$PFLAA,0,-1009,-1319,-88,1,C05CBA,225.00,0.00,36.00,-1.00,1*73
$PFLAU,3,1,2,1,0,26,0,-88,1661,C05CBA*60
$GPGGA,120144,4518.7852,N,07550.1299,W,1,12,0.92,1105.0,M,-34.3,M,,*72
$GPRMC,120144,A,4518.7852,N,07550.1299,W,23.1,219.0,100223,,,A*5C
$PFLAA,0,2207,-1136,-155,1,C043EC,30.00,14.00,26.00,0.50,1*30
$PFLAA,0,58,-2282,315,1,C05FDB,120.00,-16.00,26.00,4.00,1*74
$PFLAA,0,-1017,-1330,-90,1,C05CBA,225.00,0.00,36.00,-1.00,1*7E
$PFLAU,3,1,2,1,0,14,0,-90,1675,C05CBA*6D
$GPGGA,120145,4518.7778,N,07550.1440,W,1,12,0.92,1106.0,M,-34.3,M,,*75
$GPRMC,120145,A,4518.7778,N,07550.1440,W,23.1,231.0,100223,,,A*52
$PFLAA,0,2240,-1100,-156,1,C043EC,44.00,14.00,26.00,0.50,1*36
$PFLAA,0,66,-2239,318,1,C05FDB,104.00,-16.00,26.00,4.00,1*72
$PFLAA,0,-1027,-1337,-92,1,C05CBA,225.00,0.00,36.00,-1.00,1*78
$PFLAU,3,1,2,1,0,1,0,-92,1687,C05CBA*56
$GPGGA,120146,4518.7720,N,07550.1592,W,1,12,0.92,1107.0,M,-34.3,M,,*74
$GPRMC,120146,A,4518.7720,N,07550.1592,W,23.1,243.0,100223,,,A*57
$PFLAA,0,2264,-1057,-157,1,C043EC,58.00,14.00,26.00,0.50,1*3F
$PFLAA,0,77,-2193,321,1,C05FDB,88.00,-16.00,26.00,4.00,1*4E
$PFLAA,0,-1042,-1342,-94,1,C05CBA,225.00,0.00,36.00,-1.00,1*7F
$PFLAU,3,1,2,1,0,349,0,-94,1700,C05CBA*51
$GPGGA,120147,4518.7686,N,07550.1768,W,1,12,0.92,1108.0,M,-34.3,M,,*70
$GPRMC,120147,A,4518.7686,N,07550.1768,W,23.1,255.0,100223,,,A*5B
$PFLAA,0,2278,-1011,-158,1,C043EC,72.00,14.00,26.00,0.50,1*37
$PFLAA,0,91,-2146,324,1,C05FDB,72.00,-16.00,26.00,4.00,1*4E
$PFLAA,0,-1062,-1345,-96,1,C05CBA,225.00,0.00,36.00,-1.00,1*78
$PFLAU,3,1,2,1,0,337,0,-96,1715,C05CBA*5E
$GPGGA,120148,4518.7681,N,07550.1948,W,1,12,0.92,1109.0,M,-34.3,M,,*75
$GPRMC,120148,A,4518.7681,N,07550.1948,W,23.1,267.0,100223,,,A*5E
$PFLAA,0,2281,-962,-159,1,C043EC,86.00,14.00,26.00,0.50,1*07
$PFLAA,0,107,-2102,327,1,C05FDB,56.00,-16.00,26.00,4.00,1*75
$PFLAA,0,-1086,-1348,-98,1,C05CBA,225.00,0.00,36.00,-1.00,1*71
$PFLAU,3,1,2,1,0,324,0,-98,1731,C05CBA*54
$GPGGA,120149,4518.7700,N,07550.2119,W,1,12,0.92,1110.0,M,-34.3,M,,*7B
$GPRMC,120149,A,4518.7700,N,07550.2119,W,23.1,279.0,100223,,,A*57
$PFLAA,0,2273,-914,-160,1,C043EC,100.00,14.00,26.00,0.50,1*3E
$PFLAA,0,123,-2062,330,1,C05FDB,40.00,-16.00,26.00,4.00,1*75
$PFLAA,0,-1115,-1350,-100,1,C05CBA,225.00,0.00,36.00,-1.00,1*43
$PFLAU,3,1,2,1,0,311,0,-100,1752,C05CBA*67
$GPGGA,120150,4518.7744,N,07550.2285,W,1,12,0.92,1111.0,M,-34.3,M,,*74
$GPRMC,120150,A,4518.7744,N,07550.2285,W,23.1,291.0,100223,,,A*5F
$PFLAA,0,2254,-868,-161,1,C043EC,114.00,14.00,26.00,0.50,1*35
$PFLAA,0,138,-2030,333,1,C05FDB,24.00,-16.00,26.00,4.00,1*79
$PFLAA,0,-1149,-1354,-102,1,C05CBA,225.00,0.00,36.00,-1.00,1*4C
$PFLAU,3,1,2,1,0,299,0,-102,1776,C05CBA*62
$GPGGA,120151,4518.7813,N,07550.2437,W,1,12,0.92,1112.0,M,-34.3,M,,*74
$GPRMC,120151,A,4518.7813,N,07550.2437,W,23.1,303.0,100223,,,A*56
$PFLAA,0,2226,-829,-162,1,C043EC,128.00,14.00,26.00,0.50,1*39
$PFLAA,0,151,-2007,336,1,C05FDB,8.00,-16.00,26.00,4.00,1*49
$PFLAA,0,-1187,-1360,-104,1,C05CBA,225.00,0.00,36.00,-1.00,1*4F
$PFLAU,3,1,2,1,0,286,0,-104,1806,C05CBA*62
$GPGGA,120152,4518.7900,N,07550.2559,W,1,12,0.92,1113.0,M,-34.3,M,,*7C
$GPRMC,120152,A,4518.7900,N,07550.2559,W,23.1,315.0,100223,,,A*58
$PFLAA,0,2189,-797,-163,1,C043EC,142.00,14.00,26.00,0.50,1*38
$PFLAA,0,160,-1994,339,1,C05FDB,352.00,-16.00,26.00,4.00,1*48
$PFLAA,0,-1229,-1369,-106,1,C05CBA,225.00,0.00,36.00,-1.00,1*43
$PFLAU,3,1,2,1,0,273,0,-106,1840,C05CBA*68
$GPGGA,120153,4518.8003,N,07550.2656,W,1,12,0.92,1114.0,M,-34.3,M,,*73
$GPRMC,120153,A,4518.8003,N,07550.2656,W,23.1,327.0,100223,,,A*51
$PFLAA,0,2146,-773,-164,1,C043EC,156.00,14.00,26.00,0.50,1*33
$PFLAA,0,164,-1992,342,1,C05FDB,336.00,-16.00,26.00,4.00,1*44
$PFLAA,0,-1274,-1382,-108,1,C05CBA,225.00,0.00,36.00,-1.00,1*40
$PFLAU,3,1,2,1,0,260,0,-108,1880,C05CBA*68
$GPGGA,120154,4518.8120,N,07550.2720,W,1,12,0.92,1115.0,M,-34.3,M,,*75
$GPRMC,120154,A,4518.8120,N,07550.2720,W,23.1,339.0,100223,,,A*59
$PFLAA,0,2099,-761,-165,1,C043EC,170.00,14.00,26.00,0.50,1*36
$PFLAA,0,162,-2001,345,1,C05FDB,320.00,-16.00,26.00,4.00,1*42
$PFLAA,0,-1321,-1399,-110,1,C05CBA,225.00,0.00,36.00,-1.00,1*42
$PFLAU,3,1,2,1,0,248,0,-110,1925,C05CBA*65
$GPGGA,120155,4518.8247,N,07550.2749,W,1,12,0.92,1116.0,M,-34.3,M,,*7A
$GPRMC,120155,A,4518.8247,N,07550.2749,W,23.1,351.0,100223,,,A*5B
$PFLAA,0,2051,-759,-166,1,C043EC,184.00,14.00,26.00,0.50,1*31
$PFLAA,0,154,-2018,348,1,C05FDB,304.00,-16.00,26.00,4.00,1*44
$PFLAA,0,-1369,-1421,-112,1,C05CBA,225.00,0.00,36.00,-1.00,1*48
$PFLAU,3,1,2,1,0,235,0,-112,1974,C05CBA*69
$GPGGA,120156,4518.8369,N,07550.2739,W,1,12,0.92,1117.0,M,-34.3,M,,*72
$GPRMC,120156,A,4518.8369,N,07550.2739,W,23.1,3.0,100223,,,A*56
$PFLAA,0,2003,-768,-167,1,C043EC,198.00,14.00,26.00,0.50,1*38
$PFLAA,0,139,-2044,351,1,C05FDB,288.00,-16.00,26.00,4.00,1*4B
$PFLAA,0,-1418,-1448,-114,1,C05CBA,225.00,0.00,36.00,-1.00,1*40
$PFLAU,3,1,2,1,0,223,0,-114,2027,C05CBA*64
$GPGGA,120157,4518.8491,N,07550.2695,W,1,12,0.92,1118.0,M,-34.3,M,,*7B
$GPRMC,120157,A,4518.8491,N,07550.2695,W,23.1,15.0,100223,,,A*67
$PFLAA,0,1959,-788,-168,1,C043EC,212.00,14.00,26.00,0.50,1*3D
$PFLAA,0,117,-2076,354,1,C05FDB,272.00,-16.00,26.00,4.00,1*46
$PFLAA,0,-1466,-1479,-116,1,C05CBA,225.00,0.00,36.00,-1.00,1*49
$PFLAU,3,1,2,1,0,258,0,354,2079,C05FDB*48
$GPGGA,120158,4518.8604,N,07550.2612,W,1,12,0.92,1119.0,M,-34.3,M,,*74
$GPRMC,120158,A,4518.8604,N,07550.2612,W,23.1,27.0,100223,,,A*68
$PFLAA,0,1920,-817,-169,1,C043EC,226.00,14.00,26.00,0.50,1*3C
$PFLAA,0,90,-2111,357,1,C05FDB,256.00,-16.00,26.00,4.00,1*7D
$PFLAA,0,-1512,-1515,-118,1,C05CBA,225.00,0.00,36.00,-1.00,1*4E
$PFLAU,3,1,2,1,0,310,0,-169,2087,C043EC*11
$GPGGA,120159,4518.8701,N,07550.2500,W,1,12,0.92,1120.0,M,-34.3,M,,*7B
$GPRMC,120159,A,4518.8701,N,07550.2500,W,23.1,39.0,100223,,,A*62
$PFLAA,0,1889,-854,-170,1,C043EC,240.00,14.00,26.00,0.50,1*31
$PFLAA,0,59,-2148,360,1,C05FDB,240.00,-16.00,26.00,4.00,1*77
$PFLAA,0,-1555,-1555,-120,1,C05CBA,225.00,0.00,36.00,-1.00,1*42
$PFLAU,3,1,2,1,0,297,0,-170,2074,C043EC*1B
$GPGGA,120160,4518.8779,N,07550.2363,W,1,12,0.92,1121.0,M,-34.3,M,,*7C
$GPRMC,120160,A,4518.8779,N,07550.2363,W,23.1,51.0,100223,,,A*6A
$PFLAA,0,1868,-896,-171,1,C043EC,254.00,14.00,26.00,0.50,1*34
$PFLAA,0,26,-2184,363,1,C05FDB,224.00,-16.00,26.00,4.00,1*7E
$PFLAA,0,-1595,-1599,-122,1,C05CBA,225.00,0.00,36.00,-1.00,1*4C
$PFLAU,3,1,2,1,0,283,0,-171,2072,C043EC*19
$GPGGA,120200,4518.8833,N,07550.2202,W,1,12,0.92,1122.0,M,-34.3,M,,*7D
$GPRMC,120200,A,4518.8833,N,07550.2202,W,23.1,63.0,100223,,,A*69
$PFLAA,0,1856,-943,-172,1,C043EC,268.00,14.00,26.00,0.50,1*3C
$PFLAA,0,-6,-2216,366,1,C05FDB,208.00,-16.00,26.00,4.00,1*62
$PFLAA,0,-1631,-1645,-124,1,C05CBA,225.00,0.00,36.00,-1.00,1*45
$PFLAU,3,1,2,1,0,270,0,-172,2083,C043EC*18
$GPGGA,120201,4518.8867,N,07550.2031,W,1,12,0.92,1123.0,M,-34.3,M,,*7E
$GPRMC,120201,A,4518.8867,N,07550.2031,W,23.1,75.0,100223,,,A*6C
$PFLAA,0,1856,-990,-173,1,C043EC,282.00,14.00,26.00,0.50,1*37
$PFLAA,0,-37,-2244,369,1,C05FDB,192.00,-16.00,26.00,4.00,1*58
$PFLAA,0,-1663,-1692,-126,1,C05CBA,225.00,0.00,36.00,-1.00,1*4A
$PFLAU,3,1,2,1,0,257,0,-173,2104,C043EC*12
$GPGGA,120202,4518.8872,N,07550.1855,W,1,12,0.92,1124.0,M,-34.3,M,,*77
$GPRMC,120202,A,4518.8872,N,07550.1855,W,23.1,87.0,100223,,,A*6F
$PFLAA,0,1866,-1036,-174,1,C043EC,296.00,14.00,26.00,0.50,1*02
$PFLAA,0,-64,-2265,372,1,C05FDB,176.00,-16.00,26.00,4.00,1*5D
$PFLAA,0,-1689,-1741,-128,1,C05CBA,225.00,0.00,36.00,-1.00,1*4F
$PFLAU,3,1,2,1,0,244,0,-174,2135,C043EC*15
$GPGGA,120203,4518.8853,N,07550.1680,W,1,12,0.92,1125.0,M,-34.3,M,,*72
$GPRMC,120203,A,4518.8853,N,07550.1680,W,23.1,99.0,100223,,,A*64
$PFLAA,0,1886,-1079,-175,1,C043EC,310.00,14.00,26.00,0.50,1*09
$PFLAA,0,-84,-2280,375,1,C05FDB,160.00,-16.00,26.00,4.00,1*58
$PFLAA,0,-1711,-1789,-130,1,C05CBA,225.00,0.00,36.00,-1.00,1*42
$PFLAU,3,1,2,1,0,231,0,-175,2173,C043EC*14
$GPGGA,120204,4518.8809,N,07550.1514,W,1,12,0.92,1126.0,M,-34.3,M,,*77
$GPRMC,120204,A,4518.8809,N,07550.1514,W,23.1,111.0,100223,,,A*53
$PFLAA,0,1915,-1116,-176,1,C043EC,324.00,14.00,26.00,0.50,1*0E
$PFLAA,0,-97,-2286,378,1,C05FDB,144.00,-16.00,26.00,4.00,1*57
$PFLAA,0,-1728,-1836,-132,1,C05CBA,225.00,0.00,36.00,-1.00,1*41
$PFLAU,3,1,2,1,0,219,0,-176,2217,C043EC*1C
$GPGGA,120205,4518.8740,N,07550.1367,W,1,12,0.92,1127.0,M,-34.3,M,,*77
$GPRMC,120205,A,4518.8740,N,07550.1367,W,23.1,123.0,100223,,,A*53
$PFLAA,0,1952,-1145,-177,1,C043EC,338.00,14.00,26.00,0.50,1*07
$PFLAA,0,-100,-2285,381,1,C05FDB,128.00,-16.00,26.00,4.00,1*67
$PFLAA,0,-1741,-1881,-134,1,C05CBA,225.00,0.00,36.00,-1.00,1*44
$PFLAU,3,1,2,1,0,207,0,-177,2263,C043EC*11
$GPGGA,120206,4518.8652,N,07550.1240,W,1,12,0.92,1128.0,M,-34.3,M,,*7D
$GPRMC,120206,A,4518.8652,N,07550.1240,W,23.1,135.0,100223,,,A*51
$PFLAA,0,1993,-1165,-178,1,C043EC,352.00,14.00,26.00,0.50,1*0B
$PFLAA,0,-93,-2278,384,1,C05FDB,112.00,-16.00,26.00,4.00,1*52
$PFLAA,0,-1750,-1923,-136,1,C05CBA,225.00,0.00,36.00,-1.00,1*4F
$PFLAU,3,1,2,1,0,133,0,384,2280,C05FDB*4F
$GPGGA,120207,4518.8550,N,07550.1143,W,1,12,0.92,1129.0,M,-34.3,M,,*7C
$GPRMC,120207,A,4518.8550,N,07550.1143,W,23.1,147.0,100223,,,A*54
$PFLAA,0,2038,-1175,-179,1,C043EC,6.00,14.00,26.00,0.50,1*02
$PFLAA,0,-77,-2265,387,1,C05FDB,96.00,-16.00,26.00,4.00,1*6A
$PFLAA,0,-1756,-1961,-138,1,C05CBA,225.00,0.00,36.00,-1.00,1*41
$PFLAU,3,1,2,1,0,121,0,387,2267,C05FDB*46
$GPGGA,120208,4518.8433,N,07550.1079,W,1,12,0.92,1130.0,M,-34.3,M,,*77
$GPRMC,120208,A,4518.8433,N,07550.1079,W,23.1,159.0,100223,,,A*58
$PFLAA,0,2084,-1174,-180,1,C043EC,20.00,14.00,26.00,0.50,1*36
$PFLAA,0,-51,-2248,390,1,C05FDB,80.00,-16.00,26.00,4.00,1*60
$PFLAA,0,-1760,-1995,-140,1,C05CBA,225.00,0.00,36.00,-1.00,1*40
$PFLAU,3,1,2,1,0,110,0,390,2249,C05FDB*4E
$GPGGA,120209,4518.8306,N,07550.1055,W,1,12,0.92,1131.0,M,-34.3,M,,*78
$GPRMC,120209,A,4518.8306,N,07550.1055,W,23.1,171.0,100223,,,A*5C
$PFLAA,0,2128,-1163,-181,1,C043EC,34.00,14.00,26.00,0.50,1*33
$PFLAA,0,-16,-2228,393,1,C05FDB,64.00,-16.00,26.00,4.00,1*6C
$PFLAA,0,-1763,-2024,-142,1,C05CBA,225.00,0.00,36.00,-1.00,1*41
$PFLAU,3,1,2,1,0,99,0,393,2229,C05FDB*7B
$GPGGA,120210,4518.8184,N,07550.1064,W,1,12,0.92,1132.0,M,-34.3,M,,*79
$GPRMC,120210,A,4518.8184,N,07550.1064,W,23.1,183.0,100223,,,A*53
$PFLAA,0,2169,-1143,-182,1,C043EC,48.00,14.00,26.00,0.50,1*3C
$PFLAA,0,23,-2208,396,1,C05FDB,48.00,-16.00,26.00,4.00,1*4E
$PFLAA,0,-1765,-2048,-144,1,C05CBA,225.00,0.00,36.00,-1.00,1*4B
$PFLAU,3,1,2,1,0,88,0,396,2209,C05FDB*7C
$GPGGA,120211,4518.8062,N,07550.1108,W,1,12,0.92,1133.0,M,-34.3,M,,*7B
$GPRMC,120211,A,4518.8062,N,07550.1108,W,23.1,195.0,100223,,,A*57
$PFLAA,0,2203,-1114,-183,1,C043EC,62.00,14.00,26.00,0.50,1*38
$PFLAA,0,67,-2188,399,1,C05FDB,32.00,-16.00,26.00,4.00,1*47
$PFLAA,0,-1768,-2068,-146,1,C05CBA,225.00,0.00,36.00,-1.00,1*46
$PFLAU,3,1,2,1,0,77,0,399,2190,C05FDB*70
$GPGGA,120212,4518.7954,N,07550.1187,W,1,12,0.92,1134.0,M,-34.3,M,,*7B
$GPRMC,120212,A,4518.7954,N,07550.1187,W,23.1,207.0,100223,,,A*58
$PFLAA,0,2230,-1079,-184,1,C043EC,76.00,14.00,26.00,0.50,1*30
$PFLAA,0,112,-2171,402,1,C05FDB,16.00,-16.00,26.00,4.00,1*71
$PFLAA,0,-1773,-2083,-148,1,C05CBA,225.00,0.00,36.00,-1.00,1*47
$PFLAU,3,1,2,1,0,66,0,402,2174,C05FDB*7F
$GPGGA,120213,4518.7852,N,07550.1299,W,1,12,0.92,1135.0,M,-34.3,M,,*70
$GPRMC,120213,A,4518.7852,N,07550.1299,W,23.1,219.0,100223,,,A*5D
$PFLAA,0,2248,-1038,-185,1,C043EC,90.00,14.00,26.00,0.50,1*33
$PFLAA,0,156,-2156,405,1,C05FDB,0.00,-16.00,26.00,4.00,1*44
$PFLAA,0,-1780,-2094,-150,1,C05CBA,225.00,0.00,36.00,-1.00,1*44
$PFLAU,3,1,2,1,0,55,0,405,2162,C05FDB*7F
$GPGGA,120214,4518.7778,N,07550.1440,W,1,12,0.92,1136.0,M,-34.3,M,,*71
$GPRMC,120214,A,4518.7778,N,07550.1440,W,23.1,231.0,100223,,,A*55
$PFLAA,0,2256,-996,-186,1,C043EC,104.00,14.00,26.00,0.50,1*3F
$PFLAA,0,195,-2145,408,1,C05FDB,344.00,-16.00,26.00,4.00,1*47
$PFLAA,0,-1791,-2101,-152,1,C05CBA,225.00,0.00,36.00,-1.00,1*4B
$PFLAU,3,1,2,1,0,44,0,408,2155,C05FDB*76
$GPGGA,120215,4518.7720,N,07550.1592,W,1,12,0.92,1137.0,M,-34.3,M,,*72
$GPRMC,120215,A,4518.7720,N,07550.1592,W,23.1,243.0,100223,,,A*52
$PFLAA,0,2255,-952,-187,1,C043EC,118.00,14.00,26.00,0.50,1*38
$PFLAA,0,228,-2138,411,1,C05FDB,328.00,-16.00,26.00,4.00,1*4A
$PFLAA,0,-1806,-2106,-154,1,C05CBA,225.00,0.00,36.00,-1.00,1*4B
$PFLAU,3,1,2,1,0,33,0,411,2151,C05FDB*7A
$GPGGA,120216,4518.7686,N,07550.1768,W,1,12,0.92,1138.0,M,-34.3,M,,*74
$GPRMC,120216,A,4518.7686,N,07550.1768,W,23.1,255.0,100223,,,A*5C
$PFLAA,0,2244,-911,-188,1,C043EC,132.00,14.00,26.00,0.50,1*38
$PFLAA,0,251,-2135,414,1,C05FDB,312.00,-16.00,26.00,4.00,1*45
$PFLAA,0,-1826,-2109,-156,1,C05CBA,225.00,0.00,36.00,-1.00,1*44
$PFLAU,3,1,2,1,0,22,0,414,2150,C05FDB*7E
$GPGGA,120217,4518.7681,N,07550.1948,W,1,12,0.92,1139.0,M,-34.3,M,,*7F
$GPRMC,120217,A,4518.7681,N,07550.1948,W,23.1,267.0,100223,,,A*57
$PFLAA,0,2223,-873,-189,1,C043EC,146.00,14.00,26.00,0.50,1*3E
$PFLAA,0,263,-2135,417,1,C05FDB,296.00,-16.00,26.00,4.00,1*4A
$PFLAA,0,-1850,-2111,-158,1,C05CBA,225.00,0.00,36.00,-1.00,1*42
$PFLAU,3,1,2,1,0,10,0,417,2152,C05FDB*7E
$GPGGA,120218,4518.7700,N,07550.2119,W,1,12,0.92,1140.0,M,-34.3,M,,*79
$GPRMC,120218,A,4518.7700,N,07550.2119,W,23.1,279.0,100223,,,A*50
$PFLAA,0,2196,-842,-190,1,C043EC,160.00,14.00,26.00,0.50,1*3D
$PFLAA,0,264,-2137,420,1,C05FDB,280.00,-16.00,26.00,4.00,1*4C
$PFLAA,0,-1879,-2114,-160,1,C05CBA,225.00,0.00,36.00,-1.00,1*47
$PFLAU,3,1,2,1,0,358,0,420,2154,C05FDB*43
$GPGGA,120219,4518.7744,N,07550.2285,W,1,12,0.92,1141.0,M,-34.3,M,,*7F
$GPRMC,120219,A,4518.7744,N,07550.2285,W,23.1,291.0,100223,,,A*51
$PFLAA,0,2162,-817,-191,1,C043EC,174.00,14.00,26.00,0.50,1*32
$PFLAA,0,253,-2141,423,1,C05FDB,264.00,-16.00,26.00,4.00,1*40
$PFLAA,0,-1913,-2118,-162,1,C05CBA,225.00,0.00,36.00,-1.00,1*44
$PFLAU,3,1,2,1,0,346,0,423,2157,C05FDB*4C
$GPGGA,120220,4518.7813,N,07550.2437,W,1,12,0.92,1142.0,M,-34.3,M,,*74
$GPRMC,120220,A,4518.7813,N,07550.2437,W,23.1,303.0,100223,,,A*53
$PFLAA,0,2124,-801,-192,1,C043EC,188.00,14.00,26.00,0.50,1*37
$PFLAA,0,231,-2146,426,1,C05FDB,248.00,-16.00,26.00,4.00,1*48
$PFLAA,0,-1951,-2124,-164,1,C05CBA,225.00,0.00,36.00,-1.00,1*4B
$PFLAU,3,1,2,1,0,333,0,426,2159,C05FDB*45
$GPGGA,120221,4518.7900,N,07550.2559,W,1,12,0.92,1143.0,M,-34.3,M,,*7E
$GPRMC,120221,A,4518.7900,N,07550.2559,W,23.1,315.0,100223,,,A*5F
$PFLAA,0,2083,-795,-193,1,C043EC,202.00,14.00,26.00,0.50,1*39
$PFLAA,0,199,-2150,429,1,C05FDB,232.00,-16.00,26.00,4.00,1*4C
$PFLAA,0,-1993,-2133,-166,1,C05CBA,225.00,0.00,36.00,-1.00,1*41
$PFLAU,3,1,2,1,0,320,0,429,2159,C05FDB*48
$GPGGA,120222,4518.8003,N,07550.2656,W,1,12,0.92,1144.0,M,-34.3,M,,*73
$GPRMC,120222,A,4518.8003,N,07550.2656,W,23.1,327.0,100223,,,A*54
$PFLAA,0,2043,-797,-194,1,C043EC,216.00,14.00,26.00,0.50,1*35
$PFLAA,0,159,-2152,432,1,C05FDB,216.00,-16.00,26.00,4.00,1*4E
$PFLAA,0,-2038,-2146,-168,1,C05CBA,225.00,0.00,36.00,-1.00,1*46
$PFLAU,3,1,2,1,0,307,0,432,2159,C05FDB*47
$GPGGA,120223,4518.8120,N,07550.2720,W,1,12,0.92,1145.0,M,-34.3,M,,*73
$GPRMC,120223,A,4518.8120,N,07550.2720,W,23.1,339.0,100223,,,A*5A
$PFLAA,0,2005,-809,-195,1,C043EC,230.00,14.00,26.00,0.50,1*3A
$PFLAA,0,113,-2153,435,1,C05FDB,200.00,-16.00,26.00,4.00,1*41
$PFLAA,0,-2085,-2163,-170,1,C05CBA,225.00,0.00,36.00,-1.00,1*4E
$PFLAU,3,1,2,1,0,294,0,435,2156,C05FDB*44
$GPGGA,120224,4518.8247,N,07550.2749,W,1,12,0.92,1146.0,M,-34.3,M,,*7A
$GPRMC,120224,A,4518.8247,N,07550.2749,W,23.1,351.0,100223,,,A*5E
$PFLAA,0,1971,-828,-196,1,C043EC,244.00,14.00,26.00,0.50,1*30
$PFLAA,0,64,-2151,438,1,C05FDB,184.00,-16.00,26.00,4.00,1*70
$PFLAA,0,-2133,-2185,-172,1,C05CBA,225.00,0.00,36.00,-1.00,1*48
$PFLAU,3,1,2,1,0,346,0,-196,2139,C043EC*16
$GPGGA,120225,4518.8369,N,07550.2739,W,1,12,0.92,1147.0,M,-34.3,M,,*70
$GPRMC,120225,A,4518.8369,N,07550.2739,W,23.1,3.0,100223,,,A*51
$PFLAA,0,1942,-854,-197,1,C043EC,258.00,14.00,26.00,0.50,1*37
$PFLAA,0,16,-2147,441,1,C05FDB,168.00,-16.00,26.00,4.00,1*7E
$PFLAA,0,-2182,-2212,-174,1,C05CBA,225.00,0.00,36.00,-1.00,1*49
$PFLAU,3,1,2,1,0,333,0,-197,2123,C043EC*1E
$GPGGA,120226,4518.8491,N,07550.2695,W,1,12,0.92,1148.0,M,-34.3,M,,*7B
$GPRMC,120226,A,4518.8491,N,07550.2695,W,23.1,15.0,100223,,,A*62
$PFLAA,0,1921,-886,-198,1,C043EC,272.00,14.00,26.00,0.50,1*3A
$PFLAA,0,-28,-2141,444,1,C05FDB,152.00,-16.00,26.00,4.00,1*54
$PFLAA,0,-2229,-2243,-176,1,C05CBA,225.00,0.00,36.00,-1.00,1*4D
$PFLAU,3,1,2,1,0,320,0,-198,2116,C043EC*15
$GPGGA,120227,4518.8604,N,07550.2612,W,1,12,0.92,1149.0,M,-34.3,M,,*7A
$GPRMC,120227,A,4518.8604,N,07550.2612,W,23.1,27.0,100223,,,A*63
$PFLAA,0,1907,-921,-199,1,C043EC,286.00,14.00,26.00,0.50,1*38
$PFLAA,0,-67,-2133,447,1,C05FDB,136.00,-16.00,26.00,4.00,1*5B
$PFLAA,0,-2276,-2279,-178,1,C05CBA,225.00,0.00,36.00,-1.00,1*40
$PFLAU,3,1,2,1,0,307,0,-199,2119,C043EC*1E
$GPGGA,120228,4518.8701,N,07550.2500,W,1,12,0.92,1150.0,M,-34.3,M,,*79
$GPRMC,120228,A,4518.8701,N,07550.2500,W,23.1,39.0,100223,,,A*67
$PFLAA,0,1902,-958,-200,1,C043EC,300.00,14.00,26.00,0.50,1*3F
$PFLAA,0,-98,-2126,450,1,C05FDB,120.00,-16.00,26.00,4.00,1*5E
$PFLAA,0,-2319,-2319,-180,1,C05CBA,225.00,0.00,36.00,-1.00,1*48
$PFLAU,3,1,2,1,0,228,0,450,2128,C05FDB*49
$GPGGA,120229,4518.8779,N,07550.2363,W,1,12,0.92,1151.0,M,-34.3,M,,*75
$GPRMC,120229,A,4518.8779,N,07550.2363,W,23.1,51.0,100223,,,A*64
$PFLAA,0,1906,-995,-201,1,C043EC,314.00,14.00,26.00,0.50,1*3E
$PFLAA,0,-119,-2119,453,1,C05FDB,104.00,-16.00,26.00,4.00,1*6F
$PFLAA,0,-2359,-2362,-182,1,C05CBA,225.00,0.00,36.00,-1.00,1*42
$PFLAU,3,1,2,1,0,216,0,453,2123,C05FDB*4C
$GPGGA,120230,4518.8833,N,07550.2202,W,1,12,0.92,1152.0,M,-34.3,M,,*79
$GPRMC,120230,A,4518.8833,N,07550.2202,W,23.1,63.0,100223,,,A*6A
$PFLAA,0,1917,-1029,-202,1,C043EC,328.00,14.00,26.00,0.50,1*0D
$PFLAA,0,-128,-2114,456,1,C05FDB,88.00,-16.00,26.00,4.00,1*50
$PFLAA,0,-2395,-2409,-184,1,C05CBA,225.00,0.00,36.00,-1.00,1*4E
$PFLAU,3,1,2,1,0,204,0,456,2118,C05FDB*42
$GPGGA,120231,4518.8867,N,07550.2031,W,1,12,0.92,1153.0,M,-34.3,M,,*7A
$GPRMC,120231,A,4518.8867,N,07550.2031,W,23.1,75.0,100223,,,A*6F
$PFLAA,0,1935,-1059,-203,1,C043EC,342.00,14.00,26.00,0.50,1*07
$PFLAA,0,-126,-2111,459,1,C05FDB,72.00,-16.00,26.00,4.00,1*51
$PFLAA,0,-2426,-2456,-186,1,C05CBA,225.00,0.00,36.00,-1.00,1*49
$PFLAU,3,1,2,1,0,192,0,459,2116,C05FDB*4F
$GPGGA,120232,4518.8872,N,07550.1855,W,1,12,0.92,1154.0,M,-34.3,M,,*73
$GPRMC,120232,A,4518.8872,N,07550.1855,W,23.1,87.0,100223,,,A*6C
$PFLAA,0,1960,-1084,-204,1,C043EC,356.00,14.00,26.00,0.50,1*05
$PFLAA,0,-113,-2113,462,1,C05FDB,56.00,-16.00,26.00,4.00,1*5B
$PFLAA,0,-2453,-2505,-188,1,C05CBA,225.00,0.00,36.00,-1.00,1*42
$PFLAU,3,1,2,1,0,180,0,462,2117,C05FDB*45
$GPGGA,120233,4518.8853,N,07550.1680,W,1,12,0.92,1155.0,M,-34.3,M,,*76
$GPRMC,120233,A,4518.8853,N,07550.1680,W,23.1,99.0,100223,,,A*67
$PFLAA,0,1989,-1103,-205,1,C043EC,10.00,14.00,26.00,0.50,1*3C
$PFLAA,0,-90,-2120,465,1,C05FDB,40.00,-16.00,26.00,4.00,1*61
$PFLAA,0,-2475,-2553,-190,1,C05CBA,225.00,0.00,36.00,-1.00,1*4C
$PFLAU,3,1,2,1,0,169,0,465,2122,C05FDB*43
$GPGGA,120234,4518.8809,N,07550.1514,W,1,12,0.92,1156.0,M,-34.3,M,,*73
$GPRMC,120234,A,4518.8809,N,07550.1514,W,23.1,111.0,100223,,,A*50
$PFLAA,0,2021,-1114,-206,1,C043EC,24.00,14.00,26.00,0.50,1*36
$PFLAA,0,-58,-2131,468,1,C05FDB,24.00,-16.00,26.00,4.00,1*6A
$PFLAA,0,-2492,-2600,-192,1,C05CBA,225.00,0.00,36.00,-1.00,1*42
$PFLAU,3,1,2,1,0,157,0,468,2132,C05FDB*42
$GPGGA,120235,4518.8740,N,07550.1367,W,1,12,0.92,1157.0,M,-34.3,M,,*73
$GPRMC,120235,A,4518.8740,N,07550.1367,W,23.1,123.0,100223,,,A*50
$PFLAA,0,2054,-1117,-207,1,C043EC,38.00,14.00,26.00,0.50,1*3B
$PFLAA,0,-20,-2147,471,1,C05FDB,8.00,-16.00,26.00,4.00,1*52
$PFLAA,0,-2505,-2645,-194,1,C05CBA,225.00,0.00,36.00,-1.00,1*4A
$PFLAU,3,1,2,1,0,146,0,471,2147,C05FDB*48
$GPGGA,120236,4518.8652,N,07550.1240,W,1,12,0.92,1158.0,M,-34.3,M,,*79
$GPRMC,120236,A,4518.8652,N,07550.1240,W,23.1,135.0,100223,,,A*52
$PFLAA,0,2086,-1113,-208,1,C043EC,52.00,14.00,26.00,0.50,1*33
$PFLAA,0,21,-2167,474,1,C05FDB,352.00,-16.00,26.00,4.00,1*75
$PFLAA,0,-2514,-2687,-196,1,C05CBA,225.00,0.00,36.00,-1.00,1*46
$PFLAU,3,1,2,1,0,136,0,474,2167,C05FDB*48
$GPGGA,120237,4518.8550,N,07550.1143,W,1,12,0.92,1159.0,M,-34.3,M,,*78
$GPRMC,120237,A,4518.8550,N,07550.1143,W,23.1,147.0,100223,,,A*57
$PFLAA,0,2116,-1103,-209,1,C043EC,66.00,14.00,26.00,0.50,1*3C
$PFLAA,0,64,-2190,477,1,C05FDB,336.00,-16.00,26.00,4.00,1*7D
$PFLAA,0,-2520,-2725,-198,1,C05CBA,225.00,0.00,36.00,-1.00,1*46
$PFLAU,3,1,2,1,0,125,0,477,2191,C05FDB*40
$GPGGA,120238,4518.8433,N,07550.1079,W,1,12,0.92,1160.0,M,-34.3,M,,*71
$GPRMC,120238,A,4518.8433,N,07550.1079,W,23.1,159.0,100223,,,A*5B
$PFLAA,0,2142,-1086,-210,1,C043EC,80.00,14.00,26.00,0.50,1*31
$PFLAA,0,105,-2214,480,1,C05FDB,320.00,-16.00,26.00,4.00,1*4B
$PFLAA,0,-2524,-2759,-200,1,C05CBA,225.00,0.00,36.00,-1.00,1*4B
$PFLAU,3,1,2,1,0,114,0,480,2217,C05FDB*47
$GPGGA,120239,4518.8306,N,07550.1055,W,1,12,0.92,1161.0,M,-34.3,M,,*7E
$GPRMC,120239,A,4518.8306,N,07550.1055,W,23.1,171.0,100223,,,A*5F
$PFLAA,0,2163,-1064,-211,1,C043EC,94.00,14.00,26.00,0.50,1*3A
$PFLAA,0,142,-2239,483,1,C05FDB,304.00,-16.00,26.00,4.00,1*42
$PFLAA,0,-2527,-2788,-202,1,C05CBA,225.00,0.00,36.00,-1.00,1*46
$PFLAU,3,1,2,1,0,103,0,483,2244,C05FDB*44
$GPGGA,120240,4518.8184,N,07550.1064,W,1,12,0.92,1162.0,M,-34.3,M,,*79
$GPRMC,120240,A,4518.8184,N,07550.1064,W,23.1,183.0,100223,,,A*56
$PFLAA,0,2178,-1038,-212,1,C043EC,108.00,14.00,26.00,0.50,1*0E
$PFLAA,0,173,-2263,486,1,C05FDB,288.00,-16.00,26.00,4.00,1*4F
$PFLAA,0,-2529,-2812,-204,1,C05CBA,225.00,0.00,36.00,-1.00,1*42
$PFLAU,3,1,2,1,0,91,0,486,2270,C05FDB*7C
$GPGGA,120241,4518.8062,N,07550.1108,W,1,12,0.92,1163.0,M,-34.3,M,,*7B
$GPRMC,120241,A,4518.8062,N,07550.1108,W,23.1,195.0,100223,,,A*52
$PFLAA,0,2187,-1010,-213,1,C043EC,122.00,14.00,26.00,0.50,1*0D
$PFLAA,0,197,-2282,489,1,C05FDB,272.00,-16.00,26.00,4.00,1*40
$PFLAA,0,-2532,-2832,-206,1,C05CBA,225.00,0.00,36.00,-1.00,1*48
$PFLAU,3,1,2,1,0,80,0,489,2291,C05FDB*7C
$GPGGA,120242,4518.7954,N,07550.1187,W,1,12,0.92,1164.0,M,-34.3,M,,*7B
$GPRMC,120242,A,4518.7954,N,07550.1187,W,23.1,207.0,100223,,,A*5D
$PFLAA,0,2189,-982,-214,1,C043EC,136.00,14.00,26.00,0.50,1*32
$PFLAA,0,211,-2297,492,1,C05FDB,256.00,-16.00,26.00,4.00,1*45
$PFLAA,0,-2537,-2847,-208,1,C05CBA,225.00,0.00,36.00,-1.00,1*41
$PFLAU,3,1,2,1,0,68,0,492,2307,C05FDB*7E
$GPGGA,120243,4518.7852,N,07550.1299,W,1,12,0.92,1165.0,M,-34.3,M,,*70
$GPRMC,120243,A,4518.7852,N,07550.1299,W,23.1,219.0,100223,,,A*58
$PFLAA,0,2184,-954,-215,1,C043EC,150.00,14.00,26.00,0.50,1*35
$PFLAA,0,216,-2305,495,1,C05FDB,240.00,-16.00,26.00,4.00,1*48
